latitude,longitude,api_address,api_time_ms,dongnae_time_ms,nearest_1,nearest_2,nearest_3,top1_match,top3_match
35.5327095698546,129.04596370532346,울산광역시 울주군 상북면 이천리 산 2,64.58999999449588,3.002800003741868,울산광역시 울주군 상북면,울산광역시 울주군 상북면 이천리,울산광역시 울주군 상북면 등억알프스리,True,True
37.853546594801784,128.77034031461721,강원특별자치도 강릉시 연곡면 행정리 산 137-1,28.42400000372436,1.484399996115826,강원특별자치도 강릉시 연곡면,강원특별자치도 강릉시 주문진읍,강원특별자치도 강릉시 사천면,True,True
34.62709059902475,127.54051995470157,전라남도 여수시 화정면 조발리 산 108,53.90489999263082,2.9230999934952706,전라남도 여수시 화정면,전라남도 여수시 화정면 낭도리,전라남도 여수시 화정면 조발리,True,True
36.29979391057082,128.914396560146,경상북도 청송군 현서면 두현리 산 219-1,29.620700006489642,2.788199999486096,경상북도 청송군 안덕면,경상북도 안동시 길안면 송사리,경상북도 청송군 현서면 두현리,False,True
38.32047159471102,127.35826060015775,강원특별자치도 철원군 갈말읍 정연리 산 81,32.310000009601936,2.229100005934015,강원특별자치도 철원군 근북면 율목리,강원특별자치도 철원군 갈말읍 정연리,강원특별자치도 철원군 김화읍,False,True
37.51009015698521,126.61445355025323,인천광역시 서구 원창동 산 129-6,35.61249999620486,2.8024999919580296,인천광역시 서구 원창동,인천광역시 서구 청라동,인천광역시 동구 만석동,True,True
36.065466348239305,127.25744794390522,전북특별자치도 완주군 경천면 용복리 552-10,29.63429999363143,0.938900004257448,전북특별자치도 완주군 운주면,전북특별자치도 완주군 화산면,전북특별자치도 완주군 경천면,False,True
34.712207905154436,126.68738683259102,전라남도 강진군 성전면 송월리 산 128-1,41.86469998967368,0.9412000072188675,전라남도 강진군 성전면,전라남도 강진군 성전면 송월리,전라남도 영암군 학산면,True,True
37.312749189846684,127.34764660919375,경기도 광주시 도척면 진우리 산 62-2,31.739500002004206,2.548100004787557,경기도 광주시 도척면,경기도 광주시 도척면 진우리,경기도 광주시 도척면 노곡리,True,True
37.985744804192116,128.22917526660203,강원특별자치도 인제군 인제읍 원대리 산 75-22,33.95369999634568,2.689399989321828,강원특별자치도 인제군 인제읍,강원특별자치도 인제군 인제읍 원대리,강원특별자치도 인제군 남면,True,True
38.30879621257509,128.03221529816386,강원특별자치도 양구군 동면 사태리 산 1,32.09919999062549,1.6118000057758763,강원특별자치도 양구군 동면 사태리,강원특별자치도 양구군 동면,강원특별자치도 양구군 동면 비아리,True,True
37.31126171143438,128.68951809466841,강원특별자치도 정선군 남면 낙동리 산 274,60.33999999635853,2.08240000938531,강원특별자치도 정선군 남면,강원특별자치도 정선군 남면 광덕리,강원특별자치도 정선군 정선읍,True,True
35.86359644105293,128.38877343827505,대구광역시 달성군 하빈면 봉촌리 1200-3,49.680199997965246,3.6429999890970066,경상북도 성주군 용암면,경상북도 성주군 선남면 선원리,경상북도 성주군 선남면,False,False
35.79319479982266,127.12161227089,전북특별자치도 전주시 완산구 삼천동1가 709,35.16430000308901,3.94179999420885,전북특별자치도 전주시 완산구 삼천동1가,전북특별자치도 전주시 완산구 평화동2가,전북특별자치도 전주시 완산구 평화동3가,True,True
37.67205110225334,127.19234892665384,경기도 남양주시 진건읍 용정리 산 117-1,31.072099998709746,2.6049000007333234,경기도 남양주시 진건읍,경기도 남양주시 진건읍 용정리,경기도 남양주시 진접읍,True,True
36.82935332606405,127.82788650908986,충청북도 괴산군 괴산읍 능촌리 산 89-1,45.71350000333041,2.7995999989798293,충청북도 괴산군 괴산읍,충청북도 괴산군 괴산읍 능촌리,충청북도 괴산군 괴산읍 제월리,True,True
35.12630574743328,129.00914344808623,부산광역시 서구 서대신동3가 산 8,32.63119999610353,3.124399998341687,부산광역시 사하구 다대동,부산광역시 서구 서대신동3가,부산광역시 서구 동대신동3가,False,True
36.80868878144817,127.5202727314458,충청북도 진천군 초평면 화산리 산 65,31.362999987322837,2.9294999985722825,충청북도 진천군 초평면,충청북도 진천군 초평면 화산리,충청북도 진천군 초평면 은암리,True,True
36.20243739861458,129.28973197918282,경상북도 포항시 북구 청하면 유계리 산 101,33.082699999795295,2.814599996781908,경상북도 포항시 북구 청하면,경상북도 포항시 북구 죽장면,경상북도 포항시 북구 청하면 유계리,True,True
37.872695105195994,127.39944926935016,경기도 가평군 조종면 마일리 산 187,33.69770001154393,1.4195000112522393,경기도 가평군 조종면,경기도 가평군 가평읍,경기도 가평군 가평읍 승안리,True,True
35.23278832024068,127.36297761744245,전라남도 곡성군 오곡면 송정리 산 53-4,29.969299997901544,1.3651999906869605,전라남도 곡성군 오곡면,전라남도 곡성군 오곡면 송정리,전라남도 곡성군 고달면,True,True
37.87031669117187,127.59628701204917,강원특별자치도 춘천시 서면 안보리 산 30-1,50.94620000454597,1.8743999971775338,강원특별자치도 춘천시 서면,강원특별자치도 춘천시 서면 덕두원리,경기도 가평군 가평읍 개곡리,True,True
36.98290775839146,128.76310073052687,경상북도 봉화군 물야면 개단리 산 62-1,32.234499987680465,2.5175000046147034,경상북도 봉화군 물야면,경상북도 봉화군 춘양면,경상북도 봉화군 물야면 개단리,True,True
37.25692316062407,127.45884880660287,경기도 이천시 장록동 365-2,32.88769999926444,3.158299994538538,경기도 이천시 부발읍,경기도 이천시 장록동,경기도 이천시 부발읍 가좌리,False,True
35.78314411162633,129.31829135978688,경상북도 경주시 마동 산 83,42.27639999589883,3.867999999783933,경상북도 경주시 마동,경상북도 경주시 문무대왕면,경상북도 경주시 외동읍,True,True
36.79259306471784,128.08256107747752,경상북도 문경시 문경읍 상초리 산 42-8,57.80379999487195,2.682600010302849,경상북도 문경시 문경읍,경상북도 문경시 문경읍 상초리,충청북도 충주시 수안보면,True,True
34.366374817335426,126.56740129629367,전라남도 해남군 송지면 서정리 산 140-1,31.04699999676086,3.230799993616529,전라남도 해남군 송지면,전라남도 해남군 북평면,전라남도 완도군 군외면,True,True
35.48457256469085,128.01210263418537,경상남도 합천군 가회면 둔내리 산 74,30.484499991871417,3.276699993875809,경상남도 합천군 가회면,경상남도 합천군 가회면 둔내리,경상남도 합천군 대병면,True,True
35.622694402807575,128.50481302364216,경상남도 창녕군 성산면 운봉리 산 92-1,52.89799999445677,3.84029999258928,경상남도 창녕군 성산면,경상남도 창녕군 성산면 운봉리,경상남도 창녕군 성산면 냉천리,True,True
36.47709926867167,129.04083749434045,경상북도 청송군 파천면 신기리 1044,32.99649999826215,2.7205999940633774,경상북도 청송군 파천면,경상북도 청송군 진보면,경상북도 청송군 파천면 신기리,True,True
35.71333622654492,129.24336964653492,경상북도 경주시 내남면 명계리 산 78-2,50.12590000114869,1.007800005027093,경상북도 경주시 내남면,경상북도 경주시 내남면 명계리,경상북도 경주시 외동읍,True,True
34.902097180165185,128.40851606172842,경상남도 통영시 광도면 노산리 산 95-2,49.387000006390736,0.8864999981597066,경상남도 통영시 광도면,경상남도 통영시 용남면,경상남도 통영시 광도면 노산리,True,True
35.27151875544617,128.06236028257226,경상남도 진주시 집현면 정평리 산 175-1,47.76109999511391,3.4824999893317,경상남도 진주시 집현면,경상남도 진주시 명석면,경상남도 진주시 집현면 정평리,True,True
37.86172560369248,127.66364769220395,강원특별자치도 춘천시 서면 덕두원리 산 100,26.618200005032122,0.8054000063566491,강원특별자치도 춘천시 서면,강원특별자치도 춘천시 서면 덕두원리,강원특별자치도 춘천시 남산면,True,True
36.488872551275556,127.48411874473547,충청북도 청주시 상당구 문의면 덕유리 산 64,30.00929999689106,0.9252000018022954,충청북도 청주시 상당구 문의면,충청북도 청주시 상당구 문의면 덕유리,충청북도 청주시 서원구 현도면,True,True
36.02652505977411,126.77183841739186,전북특별자치도 군산시 성산면 성덕리 487,31.15750000870321,4.041299995151348,전북특별자치도 군산시 개사동,충청남도 서천군 화양면,전라북도 군산시 성산면 성덕리,False,False
37.29909895558401,128.13405103115358,강원특별자치도 영월군 무릉도원면 두산리 산 2,53.885100001934916,1.182599997264333,강원특별자치도 원주시 신림면,강원특별자치도 영월군 무릉도원면 두산리,강원특별자치도 영월군 무릉도원면,False,True
36.88461768438699,127.30491758824922,충청남도 천안시 동남구 북면 대평리 산 124,41.902099997969344,2.304200010257773,충청북도 진천군 백곡면,충청남도 천안시 동남구 북면,충청북도 진천군 백곡면 갈월리,False,True
36.01603703180924,128.5546129045355,경상북도 칠곡군 동명면 학명리 산 158-1,30.02530000230763,3.3296999899903312,경상북도 칠곡군 동명면,경상북도 칠곡군 가산면,경상북도 칠곡군 동명면 학명리,True,True
38.498050362206726,128.41344494360862,강원특별자치도 고성군 현내면 대진리 산 45,45.77850000350736,2.3603000008733943,강원특별자치도 고성군 현내면,강원특별자치도 고성군 수동면,강원특별자치도 고성군 현내면 철통리,True,True
35.23414456169596,128.15944336850097,경상남도 진주시 금산면 가방리 산 64-4,49.22979998809751,3.963300012401305,경상남도 진주시 대곡면,경상남도 진주시 금산면 가방리,경상남도 진주시 금산면 장사리,False,True
36.23095124703118,128.8848073707796,경상북도 청송군 현서면 도리 산 52,29.77860000100918,1.1279000027570873,경상북도 청송군 현서면,경상북도 의성군 춘산면,경상북도 청송군 현서면 도리,True,True
36.69353269141752,127.39206481056831,충청북도 청주시 흥덕구 옥산면 소로리 688-8,38.70439999445807,3.286499995738268,충청북도 청주시 청원구 오창읍,충청북도 청주시 흥덕구 옥산면,충청북도 청주시흥덕구 옥산면 국사리,False,True
36.291030795528954,126.98391261111205,충청남도 부여군 부여읍 송곡리 산 32-1,63.87539999559522,3.3530999935464934,충청남도 부여군 부여읍,충청남도 공주시 탄천면,충청남도 부여군 부여읍 상금리,True,True
36.46922191118681,129.3456298514866,경상북도 영덕군 영덕읍 화천리 산 142,53.26040000363719,1.1508000025060028,경상북도 영덕군 축산면,경상북도 영덕군 영해면,경상북도 영덕군 영덕읍 화천리,False,True
35.81756791602479,127.40640408578584,전북특별자치도 진안군 부귀면 수항리 산 183,26.518500002566725,1.1372999870218337,전북특별자치도 진안군 부귀면,전북특별자치도 진안군 진안읍,전북특별자치도 진안군 부귀면 수항리,True,True
37.908006296273065,128.3544565836745,강원특별자치도 인제군 기린면 방동리 산 282-1,49.7557000053348,1.662400012719445,강원특별자치도 인제군 기린면,강원특별자치도 홍천군 내면,강원특별자치도 인제군 상남면,True,True
37.516798021301256,126.46749728033951,인천광역시 옹진군 북도면 신도리 139-37,43.566699998336844,0.8805999968899414,인천광역시 옹진군 북도면,인천광역시 옹진군 북도면 장봉리,인천광역시 중구 운서동,True,True
36.66978049705584,127.64370112241154,충청북도 청주시 상당구 미원면 용곡리 410-1,44.84479999518953,2.2409000084735453,충청북도 청주시 상당구 미원면,충청북도 청주시 상당구 미원면 용곡리,충청북도 청주시 상당구 미원면 기암리(基岩),True,True
35.88823867266815,128.22086954390952,경상북도 성주군 대가면 칠봉리 산 33,42.898200001218356,0.9012999944388866,경상북도 성주군 대가면,경상북도 성주군 수륜면,경상북도 성주군 대가면 칠봉리,True,True
35.91623224746804,128.50826535980505,경상북도 칠곡군 지천면 연호리 산 139-14,25.555799991707318,0.9967999940272421,경상북도 칠곡군 지천면,경상북도 칠곡군 지천면 연호리,대구광역시 북구 금호동,True,True
37.05425022264743,129.38793708573616,경상북도 울진군 죽변면 화성리 367,27.986300003249198,0.9013000089908019,경상북도 울진군 죽변면,경상북도 울진군 북면,경상북도 울진군 죽변면 화성리,True,True
36.102825673808404,127.78196762358391,충청북도 영동군 양강면 산막리 산 31,53.527500000200234,1.0233000066364184,충청북도 영동군 양강면,충청북도 영동군 양강면 산막리,충청북도 영동군 용화면,True,True
36.95656426137801,128.10987657708418,충청북도 제천시 한수면 서창리 23,43.50690000865143,1.7762999923434108,충청북도 제천시 한수면,충청북도 제천시 청풍면,충청북도 제천시 한수면 서창리,True,True
37.79038546145438,128.23181995245855,강원특별자치도 홍천군 내면 방내리 산 186,28.114700005971827,1.0164999985136092,강원특별자치도 홍천군 서석면,강원특별자치도 홍천군 내면 방내리,강원특별자치도 홍천군 서석면 수하리,False,True
37.1106636472936,128.31807597312616,충청북도 단양군 어상천면 연곡리 산 45-3,32.27840000181459,1.2724999978672713,충청북도 단양군 어상천면,충청북도 단양군 어상천면 연곡리,강원특별자치도 영월군 남면,True,True
36.552278498483425,129.0363873011155,경상북도 청송군 진보면 세장리 산 134-1,29.53220000199508,1.1606000043684617,경상북도 청송군 진보면,경상북도 안동시 임동면,경상북도 영양군 입암면,True,True
37.39545816344785,127.78100309587884,경기도 양평군 양동면 삼산리 700-2,34.40190000401344,1.277000003028661,경기도 양평군 양동면 삼산리,경기도 양평군 양동면,강원특별자치도 원주시 지정면 판대리,True,True
36.458070518534285,126.61229658096286,충청남도 보령시 청소면 재정리 150-7,38.568499992834404,1.110299999709241,충청남도 보령시 청소면,충청남도 보령시 청소면 재정리,충청남도 보령시 청소면 죽림리,True,True
37.63666334709324,127.77426093804179,강원특별자치도 홍천군 남면 명동리 산 15,26.298500000848435,0.6951999966986477,강원특별자치도 홍천군 남면,강원특별자치도 홍천군 남면 제곡리,강원특별자치도 홍천군 북방면,True,True
36.5279996928317,128.07171366496434,경상북도 상주시 은척면 봉중리 185,25.703399995109066,1.1626999912550673,경상북도 상주시 외서면,경상북도 상주시 은척면,경상북도 상주시 은척면 하흘리,False,True
37.30219772667614,127.18989840535636,경기도 용인시 처인구 포곡읍 가실리 35-2,26.772500001243316,1.8983999907504767,경기도 용인시 처인구 모현읍,경기도 용인시 처인구 포곡읍,경기도 용인시 처인구 포곡읍 가실리,False,True
36.46505505312526,127.45135853938264,충청북도 청주시 서원구 현도면 노산리 산 78,30.742700007976964,2.0437000057427213,충청북도 청주시 상당구 문의면,충청북도 청주시 서원구 현도면,충청북도 청주시 서원구 현도면 노산리,False,True
35.64103666349049,128.91472853494278,경상북도 청도군 금천면 오봉리 산 8,26.012300004367717,2.061100007267669,경상북도 청도군 운문면,경상남도 밀양시 산내면,경상북도 청도군 금천면 오봉리,False,True
37.055736298877406,127.93559251315328,충청북도 충주시 동량면 대전리 산 32-1,28.71919999597594,1.9859000021824613,충청북도 충주시 산척면 영덕리,충청북도 충주시 동량면 대전리,충청북도 충주시 산척면,False,True
36.01199109038474,127.92432407655683,경상북도 김천시 부항면 대야리 324,52.602700001443736,2.9574999934993684,경상북도 김천시 부항면,경상북도 김천시 부항면 대야리,경상북도 김천시 부항면 파천리,True,True
35.291750454119075,127.12387372478862,전라남도 곡성군 옥과면 옥과리 621,31.144900000072084,3.5072000027867034,전라남도 곡성군 옥과면,전라남도 곡성군 옥과면 옥과리,전라남도 곡성군 옥과면 죽림리,True,True
37.40740949056507,128.4878113835502,강원특별자치도 평창군 평창읍 지동리 산 1,30.630999986897223,1.5424000011989847,강원특별자치도 평창군 평창읍 지동리,강원특별자치도 평창군 미탄면,강원특별자치도 평창군 평창읍,True,True
36.02376528631686,128.99262013685643,경상북도 영천시 임고면 양평리 17-5,51.57389999658335,3.081999995629303,경상북도 영천시 임고면,경상북도 영천시 고경면,경상북도 영천시 임고면 황강리,True,True
37.26155299325912,127.50930197614066,경기도 이천시 부발읍 아미리 35-65,29.36529999715276,3.03360000543762,경기도 이천시 부발읍,경기도 이천시 부발읍 아미리,경기도 이천시 부발읍 수정리,True,True
35.200100203391145,128.45610981508744,경상남도 함안군 여항면 내곡리 431-1,30.877900004270487,4.203000004054047,경상남도 함안군 여항면,경상남도 함안군 여항면 내곡리,경상남도 함안군 여항면 외암리,True,True
35.36447994989904,128.37221809159146,경상남도 의령군 지정면 백야리 445,29.918200001702644,3.5592999920481816,경상남도 의령군 정곡면,경상남도 의령군 지정면 백야리,경상남도 의령군 지정면,False,True
35.9943836975151,128.20837775192516,경상북도 성주군 벽진면 용암리 산 65-4,31.746100008604117,0.8832000021357089,경상북도 성주군 벽진면,경상북도 성주군 초전면,경상북도 성주군 벽진면 용암리,True,True
36.164646257372624,128.8562301890936,대구광역시 군위군 삼국유사면 인곡리 산 4,45.38569999567699,0.9149999968940392,대구광역시 군위군 삼국유사면,대구광역시 군위군 삼국유사면 학암리,대구광역시 군위군 삼국유사면 석산리,True,True
36.927685358891836,128.96571247836948,경상북도 봉화군 법전면 어지리 산 77-1,29.62390000175219,2.4950999941211194,경상북도 봉화군 소천면,경상북도 봉화군 법전면,경상북도 봉화군 법전면 어지리,False,True
37.336647258739156,128.51668056234735,강원특별자치도 평창군 미탄면 창리 228-12,29.872999992221594,2.625000008265488,강원특별자치도 평창군 미탄면,강원특별자치도 정선군 정선읍,강원특별자치도 평창군 미탄면 창리,True,True
37.786279580150286,126.97354774656127,경기도 양주시 백석읍 가업리 209-6,44.42009999183938,1.113699996494688,경기도 양주시 백석읍,경기도 양주시 백석읍 가업리,경기도 양주시 광적면,True,True
36.485077367772604,127.92991259309616,경상북도 상주시 화남면 동관리 212-5,45.08429999987129,1.3429999962681904,경상북도 상주시 화남면,경상북도 상주시 화남면 동관리,경상북도 상주시 화서면,True,True
35.63314033170312,126.7600710317845,전북특별자치도 정읍시 영원면 신영리 164,46.317100001033396,1.7709999956423417,전북특별자치도 정읍시 고부면,전북특별자치도 정읍시 영원면,전라북도 정읍시 영원면 후지리,False,True
35.952317258462095,126.9004506500092,전북특별자치도 익산시 오산면 장신리 1174,27.844799988088198,1.178899998194538,전북특별자치도 익산시 오산면,전라북도 익산시 오산면 오산리,전북특별자치도 익산시 오산면 오산리,True,True
37.2610624392685,128.0747589585163,강원특별자치도 원주시 신림면 성남리 산 170,53.003099994384684,0.7840000034775585,강원특별자치도 원주시 신림면,강원특별자치도 원주시 신림면 성남리,강원특별자치도 원주시 신림면 신림리,True,True
34.62493779335513,128.2788763241093,경상남도 통영시 욕지면 동항리 275-36,24.737700005061924,0.8095000084722415,경상남도 통영시 욕지면,경상남도 통영시 욕지면 동항리,경상남도 통영시 욕지면 서산리,True,True
35.82108121354004,127.61508749855872,전북특별자치도 장수군 계북면 원촌리 산 35,57.77430000307504,1.295499998377636,전북특별자치도 장수군 계북면,전북특별자치도 장수군 계북면 원촌리,전라북도 장수군 계북면 원촌리,True,True
35.57604095776265,128.6040844110698,경상남도 밀양시 청도면 소태리 산 222,31.673199991928414,1.0648999887052923,경상남도 밀양시 청도면,경상남도 밀양시 청도면 두곡리,경상남도 밀양시 청도면 소태리,True,True
35.436977691782296,128.08440063641604,경상남도 합천군 가회면 외사리 산 116,31.22119999898132,4.010399992694147,경상남도 합천군 삼가면,경상남도 합천군 삼가면 문송리,경상남도 합천군 가회면 외사리,False,True
36.50205956517455,126.83423833317272,충청남도 청양군 운곡면 후덕리 483,35.92959999514278,3.010300002642907,충청남도 청양군 운곡면,충청남도 청양군 대치면,충청남도 청양군 운곡면 위라리,True,True
35.8026998010602,128.85839221343932,경상북도 경산시 용성면 고은리 산 32-12,29.410299990558997,3.373200001078658,경상북도 경산시 용성면,경상북도 경산시 용성면 고은리,경상북도 경산시 용성면 고죽리,True,True
36.67591968636074,126.74910299754906,충청남도 예산군 삽교읍 효림리 519,54.81600000348408,3.3801000099629164,충청남도 예산군 삽교읍,충청남도 예산군 삽교읍 신가리,충청남도 예산군 삽교읍 효림리,True,True
35.5069354680522,128.01824984759412,경상남도 합천군 대병면 회양리 산 77-10,34.58580000733491,2.718299991101958,경상남도 합천군 대병면,경상남도 합천군 대병면 회양리,경상남도 합천군 가회면,True,True
37.8330330267089,128.14915046343404,강원특별자치도 홍천군 내촌면 와야리 53,31.36860000086017,2.183000004151836,강원특별자치도 홍천군 내촌면,강원특별자치도 홍천군 내촌면 와야리,강원특별자치도 홍천군 내촌면 광암리,True,True
37.967637525653146,127.95257632640966,강원특별자치도 춘천시 북산면 조교리 산 1-35,52.99689999083057,1.9904999935533851,강원특별자치도 춘천시 북산면,강원특별자치도 춘천시 북산면 대동리,강원특별자치도 춘천시 북산면 조교리,True,True
35.31571236779103,126.64076228240995,전라남도 영광군 대마면 성산리 산 11,26.753400001325645,1.7493999912403524,전라남도 장성군 삼계면,전라남도 장성군 삼계면 생촌리,전라남도 영광군 대마면 성산리,False,True
37.429669141543656,128.2006250127978,강원특별자치도 횡성군 안흥면 지구리 산 59-2,28.566600012709387,1.0994000040227547,강원특별자치도 횡성군 안흥면,강원특별자치도 횡성군 안흥면 지구리,강원특별자치도 횡성군 안흥면 상안리,True,True
36.05589565596919,127.19403738768894,전북특별자치도 완주군 화산면 운곡리 산 8-1,55.468499995185994,3.6706000100821257,전북특별자치도 완주군 화산면,전라북도 완주군 화산면 춘산리,전북특별자치도 완주군 화산면 춘산리,True,True
37.10451492603001,127.52381245211716,경기도 이천시 설성면 행죽리 309-3,123.56509998789988,2.3431000008713454,경기도 이천시 설성면,경기도 이천시 율면,경기도 이천시 설성면 행죽리,True,True
37.32745920308674,129.21369477669154,강원특별자치도 삼척시 근덕면 동막리 1154-5,34.12850000313483,1.4967000024626032,강원특별자치도 삼척시 근덕면,강원특별자치도 삼척시 노곡면,강원특별자치도 삼척시 근덕면 동막리,True,True
36.381433124066724,128.46730476424878,경상북도 의성군 안계면 봉양리 산 78,28.749500008416362,1.4875000051688403,경상북도 의성군 안계면,경상북도 의성군 안계면 봉양리,경상북도 의성군 안사면,True,True
35.16516512072501,129.08519502886907,부산광역시 연제구 연산동 산 176-12,28.519500003312714,0.9676999907242134,부산광역시 연제구 연산동,부산광역시 수영구 망미동,부산광역시 부산진구 전포동,True,True
35.65632114271569,128.38646722369757,경상북도 고령군 우곡면 답곡리 1148,25.648199996794574,1.0195999930147082,대구광역시 달성군 구지면,경상북도 고령군 우곡면,경상북도 고령군 우곡면 답곡리,False,True
37.66952334158766,127.00574181232574,서울특별시 강북구 우이동 산 8-11,33.5860000050161,1.862799996160902,서울특별시 강북구 우이동,서울특별시 도봉구 도봉동,경기도 양주시 장흥면,True,True
37.84493492417224,127.60634259714577,강원특별자치도 춘천시 서면 당림리 587-12,36.150899992208,2.4267000117106363,강원특별자치도 춘천시 남산면,강원특별자치도 춘천시 서면,강원특별자치도 춘천시 서면 당림리,False,True
37.98914488627637,127.03542035278751,경기도 연천군 전곡읍 양원리 산 66,28.842499988968484,1.3441000046441332,경기도 연천군 전곡읍,경기도 연천군 전곡읍 양원리,경기도 연천군 전곡읍 고능리,True,True
37.14108624039191,127.87717740576063,충청북도 충주시 소태면 구룡리 산 52,29.625899987877347,2.5464000063948333,충청북도 충주시 소태면,충청북도 충주시 소태면 주치리,충청북도 충주시 엄정면,True,True
37.37572878667847,127.56164352120048,경기도 여주시 대신면 양촌리 441,55.461900003138,2.9101999971317127,경기도 여주시 대신면,경기도 여주시 흥천면,경기도 여주시 대신면 양촌리,True,True
37.26819231857034,126.93781587405486,경기도 수원시 권선구 금곡동 781-2,38.541599991731346,2.9996000084793195,경기도 화성시 매송면,경기도 수원시 권선구 금곡동,경기도 화성시 매송면 어천리,False,True
35.067826540060885,126.35655263570865,전라남도 무안군 현경면 마산리 228-23,54.05679999967106,3.228900008252822,전라남도 무안군 현경면 마산리,전라남도 무안군 현경면,전라남도 무안군 현경면 용정리,True,True
34.771461631319625,126.66441471117288,전라남도 영암군 군서면 월곡리 산 1-1,33.89270001207478,3.363100011483766,전라남도 영암군 군서면,전라남도 영암군 군서면 월곡리,전라남도 영암군 학산면,True,True
38.31106948776161,128.18487218348923,강원특별자치도 인제군 서화면 가전리 산 240,84.04480000899639,2.4685999960638583,강원특별자치도 인제군 서화면,강원특별자치도 인제군 서화면 가전리,강원특별자치도 인제군 서화면 서희리,True,True
37.76715506704359,127.73065661417499,강원특별자치도 춘천시 동산면 군자리 산 317-1,35.06389999529347,1.0440999903948978,강원특별자치도 홍천군 북방면,강원특별자치도 춘천시 동산면 군자리,강원특별자치도 춘천시 동산면,False,True
35.016475736699405,127.07688820259929,전라남도 화순군 사평면 벽송리 865-1,27.447800006484613,1.4704999921377748,전라남도 화순군 동면,전라남도 화순군 사평면,전라남도 화순군 사평면 벽송리,False,True
37.07226110570426,127.25967042218753,경기도 안성시 고삼면 대갈리 590-17,45.194699996500276,2.3336000012932345,경기도 안성시 양성면,경기도 안성시 고삼면,경기도 안성시 보개면,False,True
37.34827778952751,129.20834902292108,강원특별자치도 삼척시 근덕면 교곡리 산 75-2,45.71759999089409,1.0255999950459227,강원특별자치도 삼척시 근덕면,강원특별자치도 삼척시 노곡면,강원특별자치도 삼척시 근덕면 동막리,True,True
35.32240039477336,127.14562146948862,전북특별자치도 순창군 풍산면 죽전리 966,25.97770000284072,1.5265999973053113,전북특별자치도 순창군 풍산면,전라남도 곡성군 옥과면,전라북도 순창군 풍산면 죽전리,True,True
36.471760096996455,126.6816304987641,충청남도 홍성군 장곡면 광성리 산 137,30.010899994522333,1.1691999970935285,충청남도 홍성군 장곡면,충청남도 홍성군 장곡면 광성리,충청남도 청양군 화성면,True,True
38.31078653264659,128.41118000918186,강원특별자치도 고성군 간성읍 선유실리 산 1,47.42989999067504,0.8393000025535002,강원특별자치도 고성군 간성읍,강원특별자치도 고성군 간성읍 선유실리,강원특별자치도 고성군 간성읍 탑동리,True,True
34.75680848266986,126.60444038358587,전라남도 영암군 서호면 엄길리 1345,29.424799999105744,1.632900006370619,전라남도 영암군 학산면,전라남도 영암군 서호면,전라남도 영암군 군서면,False,True
36.67980005097924,127.84569655541384,충청북도 괴산군 청천면 송면리 246-15,26.73470000445377,2.027399998041801,충청북도 괴산군 청천면,충청북도 괴산군 청천면 송면리,충청북도 괴산군 청천면 화양리,True,True
36.80271904077372,128.71597266834848,경상북도 영주시 이산면 두월리 산 119,41.9292000005953,1.5433999942615628,경상북도 영주시 이산면,경상북도 영주시 이산면 두월리,경상북도 안동시 녹전면,True,True
37.72660625957094,128.3831397490547,강원특별자치도 홍천군 내면 자운리 산 200-3,48.3473999920534,0.8795000030659139,강원특별자치도 홍천군 내면,강원특별자치도 홍천군 내면 자운리,강원특별자치도 홍천군 내면 율전리,True,True
35.2761434852347,127.90140925803969,경상남도 산청군 단성면 창촌리 산 6-5,33.02449999318924,1.9795999978668988,경상남도 산청군 단성면,경상남도 산청군 단성면 길리,경상남도 산청군 단성면 백운리,True,True
38.311425653888804,128.1528342946056,강원특별자치도 양구군 해안면 월산리 595,43.57900000468362,0.9069999941857532,강원특별자치도 인제군 서화면,강원특별자치도 인제군 서화면 서희리,강원특별자치도 양구군 해안면,False,True
36.96037650990916,128.93749938010728,경상북도 봉화군 춘양면 소로리 산 89,47.31599999649916,1.3387999933911487,경상북도 봉화군 소천면,경상북도 봉화군 춘양면,경상북도 봉화군 소천면 고선리,False,True
35.94640314714032,128.9708775617225,경상북도 영천시 범어동 130,29.72540000337176,2.210399994510226,경상북도 영천시 북안면,경상북도 영천시 범어동,경상북도 영천시 북안면 송포리,False,True
36.88799465195807,126.49146666827605,충청남도 당진시 대호지면 출포리 산 54-13,30.80009999393951,1.195799995912239,충청남도 당진시 대호지면,충청남도 서산시 지곡면,충청남도 당진시 대호지면 출포리,True,True
38.081478706405655,127.71978619008921,강원특별자치도 화천군 하남면 용암리 산 61,32.775400002719834,1.1269999959040433,강원특별자치도 화천군 하남면,강원특별자치도 화천군 하남면 위라리,강원특별자치도 화천군 하남면 용암리,True,True
35.465608139318874,127.15029714719486,전북특별자치도 임실군 덕치면 장암리 821,33.60919999249745,1.1892000038642436,전북특별자치도 순창군 구림면,전북특별자치도 임실군 덕치면 장암리,전라북도 임실군 덕치면 장암리,False,True
38.28002246788664,127.77142592595247,강원특별자치도 화천군 화천읍 풍산리 산 269,35.95350000250619,0.7991000020410866,강원특별자치도 화천군 화천읍 풍산리,강원특별자치도 철원군 원동면,강원특별자치도 화천군 화천읍,True,True
37.95112286473004,127.7100826497448,강원특별자치도 춘천시 신북읍 용산리 산 84-3,27.10569999180734,1.101399990147911,강원특별자치도 춘천시 신북읍,강원특별자치도 춘천시 사북면,강원특별자치도 춘천시 신북읍 용산리,True,True
37.00953086719727,127.65546530656032,충청북도 음성군 생극면 오생리 산 30-1,33.307799996691756,2.875100006349385,충청북도 음성군 생극면,충청북도 음성군 생극면 오생리,충청북도 충주시 신니면,True,True
36.23593533513672,128.7945200835288,경상북도 의성군 춘산면 금천리 산 57,52.34989999735262,0.8061999978963286,경상북도 의성군 춘산면,경상북도 의성군 춘산면 금천리,경상북도 의성군 가음면,True,True
37.562348374105,127.16078444715536,서울특별시 강동구 고덕동 286,30.697100010002032,2.417399999103509,서울특별시 강동구 고덕동,서울특별시 강동구 강일동,서울특별시 강동구 상일동,True,True
35.19809936811702,127.69099982225862,경상남도 하동군 악양면 동매리 산 88,36.84050000447314,3.456099992035888,경상남도 하동군 하동읍,경상남도 하동군 하동읍 읍내리,경상남도 하동군 화개면,False,False
37.777093661647584,128.51084188133828,강원특별자치도 홍천군 내면 광원리 산 466,59.8314999951981,2.1951999951852486,강원특별자치도 홍천군 내면,강원특별자치도 홍천군 내면 광원리,강원특별자치도 평창군 진부면 동산리,True,True
35.751899026692875,129.2220230094527,경상북도 경주시 내남면 노곡리 산 153,35.23809999751393,3.7211000017123297,경상북도 경주시 내남면,경상북도 경주시 내남면 노곡리,경상북도 경주시 내남면 이조리,True,True
35.87890222251651,127.16164824307175,전북특별자치도 완주군 용진읍 구억리 산 10-1,25.97020000393968,2.7754000038839877,전북특별자치도 완주군 용진읍,전북특별자치도 완주군 용진읍 구억리,전라북도 완주군 용진읍 구억리,True,True
36.07060873635203,127.57385977604993,충청남도 금산군 부리면 예미리 576-1,26.029300002846867,2.2142999951029196,충청남도 금산군 부리면,충청남도 금산군 부리면 예미리,충청남도 금산군 부리면 신촌리,True,True
36.38508973490832,127.42634665958859,대전광역시 대덕구 읍내동 126-2,30.0816999952076,3.140699991490692,대전광역시 대덕구 읍내동,대전광역시 대덕구 연축동,대전광역시 대덕구 신대동,True,True
37.046155114223765,127.97493444776524,충청북도 충주시 동량면 조동리 1113-1,34.070099995005876,2.7377999940654263,충청북도 충주시 동량면,충청북도 충주시 산척면,충청북도 충주시 동량면 조동리,True,True
36.256971849652345,126.54867879608526,충청남도 보령시 남포면 월전리 694-3,29.90930000669323,2.662600003532134,충청남도 보령시 오천면,충청남도 보령시 웅천읍,충청남도 보령시 웅천읍 독산리,False,False
36.672297919177986,126.97921659969273,충청남도 아산시 송악면 송학리 산 96,31.56509999826085,2.964700004667975,충청남도 아산시 송악면,충청남도 아산시 송악면 송학리,충청남도 공주시 유구읍 탑곡리,True,True
36.8429529676954,127.65566204128581,충청북도 괴산군 사리면 노송리 산 4,32.26520000316668,2.992300011101179,충청북도 음성군 원남면,충청북도 괴산군 사리면,충청북도 괴산군 사리면 소매리,False,True
35.64306063583379,128.12295804262598,경상남도 합천군 묘산면 광산리 77-6,28.183400005218573,3.1783999875187874,경상남도 합천군 묘산면,경상남도 합천군 합천읍,경상남도 합천군 묘산면 관기리,True,True
37.74057823122197,128.6166678552859,강원특별자치도 평창군 대관령면 병내리 산 312,31.272200008970685,2.314400000614114,강원특별자치도 평창군 진부면,강원특별자치도 평창군 대관령면 병내리,강원특별자치도 평창군 대관령면,False,True
36.665005834481924,128.04126665803554,경상북도 문경시 가은읍 하괴리 산 41-1,57.45269999897573,2.8910000110045075,경상북도 문경시 가은읍,경상북도 문경시 가은읍 하괴리,경상북도 문경시 마성면,True,True
37.46759391609579,127.47494500692802,경기도 양평군 강상면 신화리 448-1,35.176199991838075,2.71279999287799,경기도 양평군 강상면,경기도 양평군 강상면 신화리,경기도 양평군 강상면 송학리,True,True
35.205398422365676,128.72347195027123,경상남도 창원시 성산구 대방동 산 105-1,51.81430000811815,3.637799993157387,경상남도 창원시 성산구 대방동,경상남도 창원시 성산구 삼정자동,경상남도 창원시 성산구 불모산동,True,True
36.88157648777718,127.06790239196461,충청남도 아산시 음봉면 쌍룡리 산 65,58.53670000215061,3.330400009872392,충청남도 아산시 음봉면,충청남도 아산시 둔포면,충청남도 아산시 음봉면 쌍룡리,True,True
38.162886788941805,128.16829730849838,강원특별자치도 인제군 북면 월학리 2169-2,38.75809999590274,2.102999991620891,강원특별자치도 인제군 북면 월학리,강원특별자치도 인제군 인제읍,강원특별자치도 인제군 북면,True,True
34.9157308547876,128.29016866275066,경상남도 고성군 삼산면 두포리 산 144,43.97579999931622,1.1223000037716702,경상남도 고성군 삼산면 두포리,경상남도 고성군 삼산면,경상남도 고성군 삼산면 미룡리,True,True
35.69742652616569,128.9322595845513,경상북도 청도군 금천면 임당리 산 91-1,42.199999996228144,0.8934000070439652,경상북도 청도군 운문면,경상북도 청도군 금천면,경상북도 청도군 운문면 방음리,False,True
36.80259011163932,127.30041470836277,충청남도 천안시 동남구 병천면 매성리 335-3,48.47749999316875,0.9415000095032156,충청남도 천안시 동남구 병천면,충청남도 천안시 동남구 북면,충청남도 천안시 동남구 병천면 매성리,True,True
36.94365697813528,126.40416094171813,충청남도 서산시 대산읍 대로리 산 199,49.35549999936484,0.7565999985672534,충청남도 서산시 대산읍,충청남도 서산시 대산읍 대로리,충청남도 서산시 지곡면,True,True
37.790267625544864,128.3263959572284,강원특별자치도 홍천군 내면 율전리 산 57,58.60180000308901,0.6528000085381791,강원특별자치도 홍천군 내면,강원특별자치도 홍천군 내면 율전리,강원특별자치도 홍천군 내면 방내리,True,True
36.998158220372304,127.90631414443602,충청북도 충주시 금가면 유송리 370,28.2500000030268,2.7071000076830387,충청북도 충주시 금가면 유송리,충청북도 충주시 금가면,충청북도 충주시 금릉동,True,True
34.873785923508315,126.46748179197527,전라남도 무안군 일로읍 감돈리 548-2,32.862899999599904,3.9594999980181456,전라남도 무안군 삼향읍,전라남도 무안군 일로읍 감돈리,전라남도 무안군 일로읍,False,True
36.83811394292838,127.59905790980933,충청북도 증평군 도안면 송정리 산 68-2,32.56839999812655,3.066200006287545,충청북도 증평군 도안면,충청북도 증평군 도안면 송정리,충청북도 진천군 초평면,True,True
36.79337105009449,126.75808427640527,충청남도 당진시 합덕읍 운산리 865-15,49.84220000915229,1.5448000049218535,충청남도 당진시 합덕읍,충청남도 당진시 합덕읍 석우리,충청남도 예산군 고덕면,True,True
35.387759432197235,128.33991784548775,경상남도 의령군 정곡면 성황리 1522,30.35210000234656,2.0709000091301277,경상남도 의령군 정곡면,경상남도 의령군 정곡면 성황리,경상남도 의령군 지정면,True,True
37.99105315610298,126.82950218129527,경기도 연천군 장남면 고랑포리 산 36,28.200500004459172,2.417099996819161,경기도 연천군 장남면,경기도 연천군 장남면 고랑포리,경기도 연천군 백학면,True,True
37.508905423612916,127.15776299386714,경기도 하남시 감이동 446,33.534700007294305,3.7041999894427136,경기도 하남시 감일동,경기도 하남시 감이동,경기도 하남시 감북동,False,True
37.94524291375674,127.086558077213,경기도 동두천시 상봉암동 산 1-1,36.26710000389721,2.5243999989470467,경기도 연천군 전곡읍,경기도 동두천시 상봉암동,경기도 포천시 신북면,False,True
35.32785074652683,126.93564711295586,전라남도 담양군 수북면 두정리 산 4-1,54.061400005593896,4.4760000018868595,전라남도 담양군 월산면,전라남도 담양군 수북면,전라남도 담양군 담양읍 가산리,False,True
35.69406825127511,129.4396423957657,경상북도 경주시 양남면 환서리 산 182,32.2539000044344,3.208699999959208,경상북도 경주시 양남면,경상북도 경주시 양남면 환서리,경상북도 경주시 양남면 기구리,True,True
34.23763468968049,126.05091931135574,전라남도 진도군 조도면 관매도리 827,47.263200001907535,2.650300011737272,전라남도 진도군 조도면,전라남도 진도군 조도면 관매도리,전라남도 진도군 조도면 창유리,True,True
35.42109103644525,129.1058989580908,경상남도 양산시 하북면 용연리 산 63-1,45.99729999608826,3.6164999910397455,경상남도 양산시 하북면 용연리,경상남도 양산시 하북면,경상남도 양산시 상북면,True,True
34.678824716612866,127.75613052689692,전라남도 여수시 돌산읍 평사리 산 349-1,59.63779999001417,1.5038999990792945,전라남도 여수시 돌산읍,전라남도 여수시 돌산읍 평사리,전라남도 여수시 화정면,True,True
37.66642537296041,126.68887006307187,경기도 고양시 일산서구 구산동 672,30.089000007137656,3.141900000628084,경기도 김포시 운양동,경기도 김포시 양촌읍,경기도 고양시 일산서구 구산동,False,True
35.36433202759674,128.03079479946445,경상남도 산청군 생비량면 도리 산 354,37.88889999850653,4.028199997264892,경상남도 산청군 생비량면,경상남도 산청군 생비량면 도리,경상남도 산청군 신안면,True,True
36.306977026403175,128.56985136738354,경상북도 의성군 봉양면 화전리 1137-1,30.996500005130656,2.9267000063555315,경상북도 의성군 봉양면,경상북도 의성군 봉양면 화전리,경상북도 의성군 봉양면 사부리,True,True
37.17644759046742,129.05300065361894,강원특별자치도 삼척시 도계읍 구사리 산 53,36.34940000483766,2.8695000073639676,강원특별자치도 삼척시 도계읍,강원특별자치도 태백시 통동,강원특별자치도 삼척시 도계읍 심포리,True,True
37.067129256120296,126.88528689016348,경기도 화성시 향남읍 구문천리 784,65.34929999907035,3.1119000050239265,경기도 화성시 우정읍,경기도 화성시 장안면,경기도 평택시 청북읍,False,False
35.50661723279121,128.3914417225312,경상남도 의령군 낙서면 내제리 산 6,28.864300009445287,3.397599997697398,경상남도 창녕군 유어면,경상남도 의령군 낙서면,경상남도 의령군 낙서면 내제리,False,True
35.00005747178208,127.66106539465186,전라남도 광양시 옥곡면 대죽리 1031-2,30.747500000870787,3.071200000704266,경상남도 하동군 하동읍,경상남도 하동군 하동읍 읍내리,전라남도 광양시 옥곡면,False,True
37.41368768031983,126.86016440778491,경기도 광명시 가학동 778,31.153999996604398,3.897500006132759,경기도 광명시 가학동,경기도 시흥시 무지내동,경기도 광명시 일직동,True,True
34.70611636983913,126.28179950268586,전라남도 해남군 화원면 후산리 448,26.2419999926351,3.1977000035112724,전라남도 해남군 화원면,전라남도 해남군 화원면 후산리,전라남도 해남군 화원면 인지리,True,True
36.85534178843284,126.74531141758742,충청남도 당진시 순성면 아찬리 516,31.142599997110665,3.0197000014595687,충청남도 당진시 신평면,충청남도 당진시 순성면,충청남도 당진시 순성면 아찬리,False,True
35.072368970596074,127.49049261171825,전라남도 순천시 서면 청소리 산 62,38.84290000132751,3.702100002556108,전라남도 순천시 서면,전라남도 순천시 황전면,전라남도 순천시 서면 청소리,True,True
37.762718372240926,127.0206698447299,경기도 의정부시 녹양동 산 71-13,32.32980000029784,1.264699996681884,경기도 의정부시 녹양동,경기도 양주시 백석읍,경기도 의정부시 가능동,True,True
38.13432648756239,127.64757721146289,강원특별자치도 화천군 상서면 구운리 376-1,46.2025999877369,2.2308999905362725,강원특별자치도 화천군 상서면,강원특별자치도 화천군 하남면,강원특별자치도 화천군 상서면 구운리,True,True
36.82858509694708,129.17831346019517,경상북도 영양군 수비면 계리 산 93,29.859700007364154,2.822599999490194,경상북도 영양군 수비면,경상북도 영양군 수비면 신암리,경상북도 영양군 수비면 계리,True,True
36.878290470539795,127.00633580889834,충청남도 아산시 영인면 성내리 19-3,29.119099999661557,3.42399999499321,충청남도 아산시 음봉면,충청남도 아산시 영인면,충청남도 아산시 영인면 성내리,False,True
35.09674494244292,126.68781705331578,전라남도 나주시 노안면 오정리 산 10-4,30.96019999065902,3.6437999951886013,전라남도 나주시 노안면,전라남도 나주시 노안면 양천리,전라남도 나주시 노안면 오정리,True,True
36.84190003846692,126.96446779489837,충청남도 아산시 염치읍 서원리 24-28,51.36050000146497,3.4487999946577474,충청남도 아산시 염치읍,충청남도 아산시 염치읍 서원리,충청남도 아산시 영인면,True,True
37.91558163239606,126.69725112002773,경기도 파주시 군내면 점원리 산 169,47.59679999551736,2.663500010385178,경기도 파주시 군내면,경기도 파주시 군내면 송산리,경기도 파주시 장단면,True,True
37.555515534800136,128.06642761252962,강원특별자치도 횡성군 갑천면 부동리 1,43.066599988378584,2.518099994631484,강원특별자치도 횡성군 갑천면,강원특별자치도 횡성군 갑천면 부동리,강원특별자치도 횡성군 갑천면 화전리,True,True
38.059300484334486,127.20692723800408,경기도 포천시 창수면 운산리 193-4,32.62320000794716,2.2785999899497256,경기도 포천시 창수면,경기도 포천시 창수면 운산리,경기도 포천시 관인면,True,True
36.960297429920765,129.20931878748704,경상북도 울진군 금강송면 소광리 산 157,55.30269999871962,1.720099986414425,경상북도 울진군 금강송면,경상북도 울진군 금강송면 소광리,경상북도 울진군 금강송면 쌍전리,True,True
34.618669281297564,126.47321692914375,전라남도 해남군 산이면 덕호리 784-1,35.800099998596124,3.268399988883175,전라남도 해남군 황산면,전라남도 해남군 산이면,전라남도 해남군 마산면,False,True
37.010324374411574,126.5698137779696,충청남도 당진시 석문면 삼봉리 2229,27.237100002821535,0.7435000006807968,충청남도 당진시 석문면,충청남도 당진시 석문면 삼봉리,충청남도 당진시 석문면 장고항리,True,True
36.295018726654575,127.33121488230012,대전광역시 서구 관저동 1155,26.64579999691341,3.20030000875704,대전광역시 서구 관저동,대전광역시 유성구 원내동,대전광역시 유성구 대정동,True,True
38.30019692166867,127.86049389222785,강원특별자치도 철원군 임남면 수동리 산 1-1,29.756200005067512,2.1203999931458384,강원특별자치도 철원군 임남면,강원특별자치도 철원군 임남면 수동리,강원특별자치도 양구군 방산면 천미리,True,True
35.53366467987803,128.064651530229,경상남도 합천군 용주면 가호리 산 126,52.839900003164075,1.0134999902220443,경상남도 합천군 용주면,경상남도 합천군 용주면 가호리,경상남도 합천군 대병면 성리,True,True
35.90655692851143,127.95216904184551,경상북도 김천시 대덕면 화전리 산 124,30.10839999478776,1.3087000115774572,경상북도 김천시 대덕면,경상북도 김천시 대덕면 화전리,경상북도 김천시 대덕면 추량리,True,True
37.8358933345103,127.2147431805478,경기도 포천시 가산면 우금리 509-3,33.78840000368655,3.1064000067999586,경기도 포천시 가산면,경기도 포천시 내촌면,경기도 포천시 가산면 마전리,True,True
35.97375407401612,128.7503208198865,경상북도 경산시 와촌면 대한리 산 44,59.1026000038255,3.8754999986849725,경상북도 경산시 와촌면,경상북도 경산시 와촌면 대한리,경상북도 영천시 청통면,True,True
37.889634061988446,127.44138412937787,경기도 가평군 북면 백둔리 산 1-2,66.28110000747256,2.120299992384389,경기도 가평군 북면,경기도 가평군 가평읍,경기도 가평군 가평읍 승안리,True,True
36.90658268816385,126.77881384216177,충청남도 당진시 신평면 금천리 1441,34.0316000074381,2.9151000053389,충청남도 당진시 신평면,충청남도 당진시 송악읍,충청남도 당진시 신평면 매산리,True,True
35.06431515279958,126.58962383995501,전라남도 함평군 대동면 금곡리 970,43.847199995070696,3.2325000065611675,전라남도 나주시 문평면,전라남도 함평군 대동면,전라남도 함평군 대동면 금곡리,False,True
37.52446226363367,128.4229968082471,강원특별자치도 평창군 용평면 재산리 산 900,25.821700008236803,2.2293999936664477,강원특별자치도 평창군 대화면,강원특별자치도 평창군 진부면,강원특별자치도 평창군 용평면 재산리,False,True
36.49404107884793,127.7131421220735,충청북도 보은군 보은읍 교사리 313-1,31.340600005933084,3.3981000015046448,충청북도 보은군 보은읍,충청북도 보은군 보은읍 교사리,충청북도 보은군 수한면,True,True
37.749815569745614,126.614567343708,경기도 김포시 하성면 가금리 366-26,110.25510000763461,2.643800005898811,경기도 김포시 하성면,경기도 김포시 하성면 가금리,경기도 김포시 월곶면,True,True
35.063875950878526,126.20781801069815,전라남도 신안군 지도읍 읍내리 93-1,34.07609999703709,2.6053000037791207,전라남도 신안군 지도읍,전라남도 신안군 임자면,전라남도 신안군 지도읍 읍내리,True,True
35.387592439064875,128.7644727661241,경상남도 밀양시 상남면 동산리 산 102,52.58180000237189,3.967999989981763,경상남도 밀양시 하남읍,경상남도 밀양시 상남면,경상남도 밀양시 상남면 동산리,False,True
37.842182978613494,128.85077795637469,강원특별자치도 강릉시 사천면 판교리 산 52-4,29.35379999689758,2.3625000030733645,강원특별자치도 강릉시 사천면,강원특별자치도 강릉시 사천면 판교리,강원특별자치도 강릉시 연곡면 동덕리,True,True
36.09479200293117,127.05488551336323,전북특별자치도 익산시 망성면 내촌리 1297-7,34.96669999731239,3.335999994305894,전북특별자치도 익산시 망성면,전라북도 익산시 망성면 내촌리,전북특별자치도 익산시 망성면 내촌리,True,True
37.52883257686225,127.31133899906072,경기도 양평군 양서면 양수리 868,39.642000003368594,2.7578000008361414,경기도 광주시 남종면,경기도 남양주시 조안면,경기도 남양주시 조안면 조안리,False,False
35.29310994767749,126.84334943013627,전라남도 장성군 진원면 진원리 산 81-1,48.623199996654876,1.3371999957598746,전라남도 장성군 장성읍,전라남도 장성군 진원면,전라남도 장성군 장성읍 유탕리,False,True
37.49958385317079,127.74788001276981,경기도 양평군 양동면 금왕리 산 139,98.62570000404958,2.641399987624027,경기도 양평군 양동면,경기도 양평군 청운면,경기도 양평군 양동면 금왕리,True,True
37.59228692149227,128.5661270671643,강원특별자치도 평창군 진부면 신기리 131-6,33.740700004273094,2.2924000077182427,강원특별자치도 평창군 진부면,강원특별자치도 평창군 용평면,강원특별자치도 평창군 진부면 신기리,True,True
35.087903170657796,128.24553415077764,경상남도 고성군 개천면 예성리 산 183,34.352700007730164,3.3688000112306327,경상남도 고성군 영오면,경상남도 고성군 개천면,경상남도 고성군 영현면 연화리,False,True
35.51480592088511,126.53204095905333,전북특별자치도 고창군 심원면 고전리 125,92.37260000372771,3.591400003642775,전북특별자치도 고창군 심원면,전북특별자치도 고창군 심원면 만돌리,전라북도 고창군 심원면 만돌리,True,True
38.16989285944996,128.0342854703893,강원특별자치도 양구군 동면 지석리 산 144,160.57020000880584,1.09790000715293,강원특별자치도 양구군 동면,강원특별자치도 양구군 국토정중앙면,강원특별자치도 양구군 동면 지석리,True,True
35.8447450602407,127.3932918794361,전북특별자치도 진안군 부귀면 수항리 산 78-2,37.14049998961855,3.2198999979300424,전북특별자치도 진안군 부귀면,전라북도 진안군 부귀면 수항리,전북특별자치도 진안군 부귀면 수항리,True,True
36.997121385904265,128.8788342983135,경상북도 봉화군 춘양면 애당리 산 14,30.741299997316673,2.1993999980622903,경상북도 봉화군 춘양면,경상북도 봉화군 춘양면 애당리,경상북도 봉화군 소천면,True,True
36.99379322564241,127.02641078117757,경기도 평택시 오성면 창내리 243-2,42.74230000737589,3.1530999985989183,경기도 평택시 팽성읍,경기도 평택시 오성면,경기도 평택시 오성면 창내리,False,True
36.25595658458189,127.50096087944654,충청북도 옥천군 군서면 사양리 산 90,31.0031999979401,3.3069000055547804,충청북도 옥천군 군서면,충청북도 옥천군 군서면 사양리,충청남도 금산군 추부면,True,True
37.78037623865558,126.21751843566422,인천광역시 강화군 교동면 서한리 1,34.81290000490844,2.2335999965434894,인천광역시 강화군 교동면,인천광역시 강화군 교동면 서한리,인천광역시 강화군 서도면,True,True
36.74497957964381,126.25723785638723,충청남도 태안군 근흥면 두야리 산 165-6,36.74539999337867,2.739799994742498,충청남도 태안군 근흥면,충청남도 태안군 태안읍,충청남도 태안군 근흥면 두야리,True,True
35.71939377348445,128.17927533894823,경상남도 합천군 야로면 야로리 산 7,37.25229999690782,3.291799992439337,경상남도 합천군 야로면,경상남도 합천군 야로면 하빈리,경상북도 고령군 쌍림면,True,True
35.770726036196756,127.73957826212066,경상남도 거창군 북상면 월성리 산 161-1,58.75969999760855,3.4281999978702515,경상남도 거창군 북상면,경상남도 거창군 북상면 월성리,경상남도 거창군 북상면 산수리,True,True
37.72609158290405,128.8353826809432,강원특별자치도 강릉시 성산면 구산리 613,29.106700007105246,1.0019000037573278,강원특별자치도 강릉시 성산면,강원특별자치도 강릉시 성산면 구산리,강원특별자치도 강릉시 구정면 제비리,True,True
36.390746583398915,128.93139022206392,경상북도 안동시 길안면 금곡리 68-7,51.192200000514276,1.0032999998657033,경상북도 안동시 길안면,경상북도 안동시 길안면 대사리,경상북도 안동시 길안면 금곡리,True,True
35.747863106124704,129.1463362747502,경상북도 경주시 내남면 상신리 산 191-1,44.037600004230626,1.005000012810342,경상북도 경주시 내남면,경상북도 경주시 산내면,경상북도 경주시 내남면 상신리,True,True
36.59063362104097,128.162455621971,경상북도 상주시 함창읍 나한리 산 44,38.137199997436255,3.379799993126653,경상북도 상주시 이안면,경상북도 상주시 함창읍 나한리,경상북도 상주시 함창읍,False,True
37.12639397948561,126.86530771203805,경기도 화성시 팔탄면 덕우리 269-5,57.65919999976177,2.965300009236671,경기도 화성시 우정읍,경기도 화성시 팔탄면,경기도 화성시 장안면,False,True
35.49764460666562,128.31708222535633,경상남도 의령군 부림면 익구리 산 122,30.063400001381524,3.015199996298179,경상남도 의령군 부림면,경상남도 의령군 부림면 익구리,경상남도 합천군 청덕면,True,True
37.59379486843183,128.1620217975563,강원특별자치도 횡성군 청일면 유동리 418,32.255300000542775,2.4616000009700656,강원특별자치도 횡성군 청일면,강원특별자치도 횡성군 청일면 유동리,강원특별자치도 횡성군 갑천면,True,True
34.83304134860693,126.7211898419301,전라남도 영암군 덕진면 운암리 356-3,51.93879999569617,1.3145999982953072,전라남도 영암군 덕진면,전라남도 영암군 영암읍,전라남도 영암군 금정면,True,True
37.09491514337032,127.1162647240519,경기도 평택시 진위면 은산리 572-19,28.077199996914715,0.9417999972356483,경기도 평택시 진위면,경기도 평택시 진위면 은산리,경기도 용인시 처인구 남사읍,True,True
35.66224302741369,127.34781484223183,전북특별자치도 임실군 관촌면 운수리 산 49,26.862500002607703,1.0814999986905605,전북특별자치도 임실군 성수면,전북특별자치도 진안군 성수면,전북특별자치도 임실군 관촌면 운수리,False,True
35.99657691007796,127.74170282365586,전북특별자치도 무주군 설천면 청량리 산 20-6,28.57419999781996,1.0577000066405162,전북특별자치도 무주군 설천면,전북특별자치도 무주군 설천면 청량리,전라북도 무주군 설천면 청량리,True,True
38.32054011664899,127.7489298080679,강원특별자치도 철원군 원동면 등대리 산 1-8,27.328700001817197,1.2287999998079613,강원특별자치도 철원군 원동면,강원특별자치도 철원군 원동면 등대리,강원특별자치도 철원군 원동면 세현리,True,True
35.49968473987684,127.91007901847648,경상남도 산청군 오부면 대현리 산 104,27.332599987857975,0.9605999948689714,경상남도 산청군 오부면,경상남도 산청군 생초면,경상남도 산청군 오부면 대현리,True,True
35.76446252455705,126.93441290422032,전북특별자치도 김제시 서정동 833-2,47.64449999493081,1.2332000042079017,전북특별자치도 정읍시 감곡면,전북특별자치도 김제시 봉남면,전북특별자치도 김제시 서정동,False,True
36.95681188333162,129.0089740601207,경상북도 봉화군 소천면 고선리 55,28.10549999412615,1.7365999956382439,경상북도 봉화군 소천면,경상북도 봉화군 소천면 현동리,경상북도 봉화군 석포면,True,True
35.08933258447767,128.39190122377698,경상남도 고성군 회화면 삼덕리 산 37,29.22979999857489,2.8703999996650964,경상남도 창원시 마산합포구 진전면,경상남도 고성군 회화면,경상남도 고성군 회화면 삼덕리,False,True
36.92456761578609,127.20624472812283,충청남도 천안시 서북구 입장면 신두리 217-36,27.973000003839843,3.5923999967053533,충청남도 천안시 서북구 입장면,충청남도 천안시 서북구 입장면 신두리,충청남도 천안시 서북구 입장면 유리,True,True
36.05060035813206,128.20416485130409,경상북도 김천시 농소면 노곡리 산 75-7,51.90750000474509,2.458099988871254,경상북도 김천시 농소면,경상북도 김천시 남면,경상북도 김천시 농소면 노곡리,True,True
36.82763233393184,127.34494132499664,충청남도 천안시 동남구 병천면 관성리 산 28,53.04110000724904,2.0044999982928857,충청남도 천안시 동남구 병천면,충청북도 진천군 진천읍,충청남도 천안시 동남구 병천면 관성리,True,True
35.58513492175122,127.30606773185656,전북특별자치도 임실군 오수면 봉천리 산 35,25.862500013317913,1.2706999987130985,전북특별자치도 임실군 임실읍,전북특별자치도 임실군 오수면,전북특별자치도 임실군 오수면 봉천리,False,True
35.59477362495216,129.3968164233649,울산광역시 북구 화봉동 산 9,53.21410000033211,1.1804999958258122,울산광역시 북구 화봉동,울산광역시 북구 신현동,울산광역시 북구 무룡동,True,True
37.17795678105947,128.7115195260742,강원특별자치도 영월군 산솔면 직동리 산 80-1,30.07969999453053,1.15790001291316,강원특별자치도 영월군 산솔면,강원특별자치도 영월군 김삿갓면,강원특별자치도 영월군 산솔면 직동리,True,True
34.74138555134099,127.36663249468785,전라남도 고흥군 남양면 신흥리 1228-4,28.679700000793673,1.3519000058295205,전라남도 고흥군 남양면,전라남도 고흥군 남양면 신흥리,전라남도 고흥군 과역면,True,True
37.489358992255,128.82020129848493,강원특별자치도 정선군 임계면 봉산리 산 158,27.401899991673417,0.6857999978819862,강원특별자치도 정선군 임계면,강원특별자치도 정선군 임계면 송계리,강원특별자치도 정선군 여량면,True,True
35.92182455217002,128.09080591144604,경상북도 성주군 금수강산면 무학리 산 144,46.76569999719504,3.054599990718998,경상북도 성주군 금수강산면,경상북도 성주군 금수강산면 영천리,경상북도 성주군 금수강산면 무학리,True,True
35.6621243685308,129.31796780407848,경상북도 경주시 외동읍 문산리 산 91-66,29.008199999225326,1.040400005877018,경상북도 경주시 외동읍,경상북도 경주시 외동읍 문산리,울산광역시 북구 천곡동,True,True
35.27266429214127,127.15108973926452,전라남도 곡성군 겸면 평장리 산 13,135.81250001152512,1.9687000021804124,전라남도 곡성군 옥과면,전라남도 곡성군 겸면,전라남도 곡성군 오산면,False,True
37.224007211447,126.8662384822465,경기도 화성시 비봉면 양노리 산 79-1,31.356199993751943,0.8655999990878627,경기도 화성시 비봉면,경기도 화성시 남양읍,경기도 화성시 비봉면 양노리,True,True
35.35966643049313,127.73127428882572,경상남도 함양군 마천면 추성리 산 100,27.05950000381563,0.9457000123802572,경상남도 함양군 마천면,경상남도 함양군 마천면 추성리,경상남도 산청군 삼장면 유평리,True,True
37.04077953361152,127.16916089539191,경기도 안성시 원곡면 칠곡리 692-9,27.459400007501245,1.6539999924134463,경기도 안성시 원곡면,경기도 안성시 양성면,경기도 안성시 원곡면 칠곡리,True,True
34.88699034676201,127.2526161570607,전라남도 순천시 외서면 반용리 산 50,106.44109999702778,3.4789999917848036,전라남도 보성군 벌교읍,전라남도 순천시 외서면,전라남도 보성군 벌교읍 추동리,False,True
38.12449298214755,128.2742087078483,강원특별자치도 인제군 북면 한계리 산 1-3,46.90800000389572,0.8974000083981082,강원특별자치도 인제군 인제읍,강원특별자치도 인제군 북면,강원특별자치도 인제군 북면 한계리,False,True
35.65339156642857,126.7483378286717,전북특별자치도 정읍시 영원면 풍월리 1602-5,39.09469999780413,1.866400009021163,전북특별자치도 정읍시 영원면,전북특별자치도 정읍시 영원면 풍월리,전라북도 정읍시 영원면 풍월리,True,True
34.992687502694025,126.73083859559594,전라남도 나주시 영산동 791-1,27.922599998419173,1.5218000044114888,전라남도 나주시 영산동,전라남도 나주시 금천면,전라남도 나주시 봉황면,True,True
35.901105542147455,126.70835081316156,전북특별자치도 군산시 옥구읍 수산리 156-35,28.48700000322424,1.0356999991927296,전북특별자치도 군산시 개사동,전북특별자치도 김제시 진봉면,전북특별자치도 김제시 진봉면 심포리,False,False
35.895691104048666,129.36080726752638,경상북도 포항시 남구 오천읍 항사리 산 47-1,36.54380000079982,1.47790000482928,경상북도 포항시 남구 오천읍 항사리,경상북도 포항시 남구 오천읍,경상북도 경주시 암곡동,True,True
37.30156241881855,127.77444615527699,강원특별자치도 원주시 문막읍 반계리 산 54-3,49.36070000985637,1.0269999911542982,강원특별자치도 원주시 문막읍,경기도 여주시 강천면,강원특별자치도 원주시 문막읍 반계리,True,True
35.18046193073059,126.48264615293616,전라남도 함평군 신광면 함정리 720-2,28.70989999792073,1.0091000003740191,전라남도 함평군 신광면,전라남도 함평군 신광면 함정리,전라남도 영광군 불갑면 우곡리,True,True
37.929044150508496,127.06587529773674,경기도 동두천시 보산동 산 6-2,26.468299998668954,0.7645999867236242,경기도 연천군 전곡읍,경기도 동두천시 보산동,경기도 동두천시 상봉암동,False,True
36.37141108791808,126.88366940359289,충청남도 청양군 장평면 락지리 607-4,28.020400000968948,1.0009000106947497,충청남도 청양군 장평면,충청남도 청양군 장평면 락지리,충청남도 청양군 장평면 적곡리,True,True
36.39910051073836,127.28617958434414,대전광역시 유성구 안산동 산 49,27.742100006435066,1.292400003876537,충청남도 공주시 반포면,세종특별자치시 금남면,대전광역시 유성구 반석동,False,False
35.043757337587046,127.74730394940178,전라남도 광양시 진월면 월길리 산 55,40.38310000032652,1.2364000140223652,경상남도 하동군 하동읍,경상남도 하동군 하동읍 읍내리,경상남도 하동군 금남면,False,False
36.21963062896623,127.39598974518394,충청남도 금산군 복수면 구례리 산 1,28.017800010275096,1.8697000050451607,충청남도 금산군 복수면,충청남도 금산군 복수면 구례리,충청남도 금산군 복수면 신대리,True,True
36.01749132024489,128.74357316269325,경상북도 영천시 신녕면 왕산리 산 63,32.584300002781674,2.4261999933514744,경상북도 영천시 신녕면,경상북도 영천시 청통면 신원리,경상북도 영천시 청통면,True,True
35.19636921411829,127.21232920039347,전라남도 곡성군 삼기면 수산리 산 229,34.43369999877177,1.78310000046622,전라남도 곡성군 삼기면,전라남도 곡성군 삼기면 수산리,전라남도 곡성군 석곡면,True,True
37.70277821857753,127.24832166749765,경기도 남양주시 오남읍 팔현리 산 162,28.82440001121722,1.3605999993160367,경기도 남양주시 오남읍,경기도 남양주시 진접읍,경기도 남양주시 오남읍 팔현리,True,True
36.03379140260017,127.813832154891,충청북도 영동군 용화면 안정리 산 44,27.39770000334829,1.8589999963296577,충청북도 영동군 용화면,전북특별자치도 무주군 설천면,충청북도 영동군 용화면 안정리,True,True
35.94006021127962,127.09626150073939,전북특별자치도 완주군 봉동읍 구암리 산 105-5,26.7186999990372,1.7623999883653596,전북특별자치도 익산시 왕궁면,전북특별자치도 완주군 봉동읍,전북특별자치도 완주군 삼례읍,False,True
35.756157217362194,127.47153994588392,전북특별자치도 진안군 진안읍 구룡리 산 233,27.432900009443983,2.521700007491745,전북특별자치도 진안군 진안읍,전북특별자치도 장수군 천천면,전북특별자치도 진안군 진안읍 죽산리,True,True
38.05246946437034,127.90482424721546,강원특별자치도 양구군 양구읍 수인리 산 1-1,54.954200008069165,0.9042000019690022,강원특별자치도 양구군 양구읍,강원특별자치도 춘천시 북산면,강원특별자치도 양구군 양구읍 웅진리,True,True
36.09646748546357,128.94189274465066,경상북도 영천시 화북면 오산리 산 3,52.29960000724532,0.8747999963816255,경상북도 영천시 화남면,경상북도 영천시 화북면,경상북도 영천시 화북면 오산리,False,True
35.49722390467413,127.60563734426383,전북특별자치도 남원시 아영면 갈계리 179-1,30.70109999680426,1.138299994636327,전북특별자치도 남원시 아영면,전북특별자치도 장수군 번암면,전북특별자치도 남원시 인월면,True,True
35.04708406747038,127.90122546939484,경상남도 하동군 진교면 관곡리 산 89,35.1751999987755,2.333399999770336,경상남도 하동군 금남면,경상남도 하동군 금남면 중평리,경상남도 하동군 하동읍,False,False
36.542854821134334,128.52050373988195,경상북도 안동시 풍천면 광덕리 1391-1,39.89200000069104,2.577399995061569,경상북도 안동시 풍천면,경상북도 안동시 풍천면 하회리,경상북도 안동시 풍천면 광덕리,True,True
37.09434721753322,127.134517172205,경기도 용인시 처인구 남사읍 진목리 산 14,47.15769999893382,1.0020000045187771,경기도 용인시 처인구 남사읍,경기도 용인시 처인구 남사읍 진목리,경기도 안성시 원곡면,True,True
35.08232680564631,128.99012708169795,부산광역시 사하구 구평동 73,44.708300003549084,4.47369999892544,부산광역시 사하구 다대동,부산광역시 사하구 구평동,부산광역시 사하구 장림동,False,True
34.79541450628158,127.00588008795698,전라남도 장흥군 장평면 녹양리 산 42-3,29.8008999961894,0.992799992673099,전라남도 장흥군 장평면,전라남도 보성군 노동면,전라남도 장흥군 장평면 녹양리,True,True
37.072101373565204,128.21237766243684,충청북도 제천시 금성면 양화리 산 23,29.243299999507144,1.533599992399104,충청북도 제천시 금성면,충청북도 제천시 금성면 양화리,충청북도 제천시 금성면 대장리,True,True
38.24456554131699,127.4142876820228,강원특별자치도 철원군 김화읍 청양리 산 6-2,25.79640000476502,1.7060999962268397,강원특별자치도 철원군 김화읍,강원특별자치도 철원군 갈말읍,강원특별자치도 철원군 근남면,True,True
36.04170237865598,127.83900158381768,충청북도 영동군 용화면 안정리 산 1-1,41.55729999183677,0.887200003489852,충청북도 영동군 용화면,전북특별자치도 무주군 설천면,충청북도 영동군 상촌면,True,True
35.41460129627812,127.94627264462638,경상남도 산청군 산청읍 척지리 산 17,29.998099998920225,2.381799989962019,경상남도 산청군 산청읍,경상남도 산청군 신등면,경상남도 산청군 산청읍 척지리,True,True
35.212582730464646,127.81037833628999,경상남도 하동군 옥종면 궁항리 산 41,30.02189999097027,3.127100004348904,경상남도 하동군 하동읍,경상남도 하동군 하동읍 읍내리,경상남도 하동군 청암면,False,False
37.241449831639535,128.814392984034,강원특별자치도 정선군 사북읍 직전리 613,29.751299996860325,2.38609999360051,강원특별자치도 정선군 사북읍,강원특별자치도 정선군 사북읍 사북리,강원특별자치도 정선군 화암면,True,True
37.649441604509114,128.3249640979983,강원특별자치도 평창군 봉평면 흥정리 산 1,32.947899991995655,2.8249000024516135,강원특별자치도 평창군 봉평면,강원특별자치도 평창군 봉평면 흥정리,강원특별자치도 평창군 용평면,True,True
37.67837254334598,128.08709127879854,강원특별자치도 홍천군 영귀미면 노천리 산 10-51,39.230599999427795,2.3806999961379915,강원특별자치도 홍천군 영귀미면 노천리,강원특별자치도 홍천군 영귀미면,강원특별자치도 홍천군 서석면,True,True
36.20384262318111,126.91283408840815,충청남도 부여군 장암면 지토리 산 126,29.56760000961367,1.928900004713796,충청남도 부여군 장암면,충청남도 부여군 장암면 지토리,충청남도 부여군 임천면,True,True
37.44221342293066,129.17140505396617,강원특별자치도 삼척시 남양동 349-4,46.72039998695254,1.9281999993836507,강원특별자치도 삼척시 남양동,강원특별자치도 삼척시 정상동,강원특별자치도 삼척시 교동,True,True
35.81542789843529,127.52006001536212,전북특별자치도 진안군 동향면 성산리 산 122,28.439300003810786,1.3891999988118187,전북특별자치도 진안군 상전면,전북특별자치도 진안군 진안읍 가막리,전라북도 진안군 진안읍 가막리,False,False
35.94838823387123,127.15156619403523,전북특별자치도 완주군 봉동읍 구미리 1149,24.416399988695048,1.0458999895490706,전북특별자치도 완주군 봉동읍,전북특별자치도 완주군 고산면,전라북도 완주군 봉동읍 은하리,True,True
35.6021138579596,128.82201352643906,경상북도 청도군 매전면 구촌리 산 37,27.30449999216944,0.9686000121291727,경상북도 청도군 매전면,경상북도 청도군 청도읍,경상북도 청도군 매전면 구촌리,True,True
38.1504207536781,127.61381532765364,강원특별자치도 화천군 상서면 파포리 산 80-1,48.61199999868404,0.818000000435859,강원특별자치도 화천군 상서면,강원특별자치도 화천군 상서면 구운리,강원특별자치도 화천군 하남면,True,True
37.04602884728335,128.36009841974922,충청북도 단양군 어상천면 덕문곡리 산 43,51.23070000263397,1.5648999979021028,충청북도 단양군 매포읍,충청북도 단양군 가곡면,충청북도 단양군 영춘면,False,False
34.57600766471455,127.71443664770193,전라남도 여수시 화정면 월호리 산 51,29.589500001748092,1.0008000099333003,전라남도 여수시 남면,전라남도 여수시 화정면,전라남도 여수시 화정면 월호리,False,True
38.01773925667936,128.55136884113963,강원특별자치도 양양군 서면 영덕리 산 15,43.99109999940265,0.8140999998431653,강원특별자치도 양양군 서면,강원특별자치도 양양군 서면 영덕리,강원특별자치도 양양군 서면 공수전리,True,True
37.94366334020877,128.7055537733456,강원특별자치도 양양군 현남면 상월천리 157,29.27790000103414,1.3540000072680414,강원특별자치도 양양군 현북면,강원특별자치도 양양군 현남면,강원특별자치도 양양군 현남면 상월천리,False,True
37.93061487600457,127.12648902830422,경기도 포천시 신북면 금동리 산 92,49.467200005892664,1.1040000099455938,경기도 포천시 신북면,경기도 포천시 신북면 금동리,경기도 포천시 신북면 갈월리,True,True
36.48977218768133,128.60961363925804,경상북도 안동시 일직면 국곡리 산 39-1,34.550900003523566,1.186299996334128,경상북도 안동시 남후면,경상북도 안동시 일직면,경상북도 안동시 일직면 국곡리,False,True
36.58553731369539,127.65384743347025,충청북도 보은군 내북면 도원리 산 31,31.318400011514314,1.7185000033350661,충청북도 보은군 내북면,충청북도 청주시 상당구 미원면,충청북도 보은군 내북면 동산리,True,True
36.299287045740314,127.53352649649428,충청북도 옥천군 군서면 오동리 139,32.64639999542851,2.441700009512715,충청북도 옥천군 옥천읍,충청북도 옥천군 군서면,충청북도 옥천군 군북면,False,True
37.75853537694833,127.57165302730617,강원특별자치도 춘천시 남면 가정리 산 21-1,46.85179999796674,0.7303000020328909,강원특별자치도 춘천시 남산면,강원특별자치도 춘천시 남면,강원특별자치도 춘천시 남면 가정리,False,True
37.200431119060006,127.65635181917098,경기도 여주시 점동면 청안리 643,30.05489999486599,0.8342999935848638,경기도 여주시 점동면,경기도 여주시 점동면 청안리,경기도 여주시 가남읍,True,True
36.4893352669791,126.33990280733747,충청남도 태안군 안면읍 승언리 157-56,28.835299992351793,0.7414000137941912,충청남도 보령시 오천면,충청남도 태안군 안면읍,충청남도 태안군 안면읍 승언리,False,True
37.40416165870313,128.42848975076222,강원특별자치도 평창군 평창읍 주진리 산 120,26.561999999103136,0.8138999983202666,강원특별자치도 평창군 평창읍,강원특별자치도 평창군 평창읍 주진리,강원특별자치도 평창군 방림면 방림리,True,True
37.39868208452278,128.12631509034227,강원특별자치도 횡성군 안흥면 안흥리 산 147,28.34769999026321,0.7308000058401376,강원특별자치도 횡성군 안흥면 안흥리,강원특별자치도 횡성군 안흥면,강원특별자치도 횡성군 강림면 강림리,True,True
34.969554506964194,127.26322985167573,전라남도 순천시 송광면 이읍리 산 167,24.436099993181415,1.0427000088384375,전라남도 순천시 송광면,전라남도 순천시 송광면 이읍리,전라남도 순천시 송광면 장안리,True,True
37.44346355469373,128.24902718835543,강원특별자치도 평창군 방림면 계촌리 산 1,54.44520000310149,0.7377000001724809,강원특별자치도 평창군 방림면,강원특별자치도 횡성군 둔내면,강원특별자치도 횡성군 안흥면,True,True
35.5174579422382,126.57178698636133,전북특별자치도 고창군 심원면 연화리 산 39-1,26.432300001033582,1.1327999964123592,전북특별자치도 고창군 심원면,전라북도 고창군 심원면 연화리,전북특별자치도 고창군 심원면 연화리,True,True
36.630405595183014,129.2048083943479,경상북도 영양군 영양읍 무창리 산 62,30.416000008699484,1.0876000014832243,경상북도 영양군 영양읍,경상북도 영양군 영양읍 무창리,경상북도 영양군 영양읍 화천리,True,True
37.11579853449576,127.25455992924014,경기도 안성시 양성면 미산리 785-2,28.01500000350643,1.0661999986041337,경기도 안성시 양성면,경기도 안성시 고삼면,경기도 용인시 처인구 이동읍,True,True
36.64353112614905,128.77556576354027,경상북도 안동시 와룡면 가야리 693-1,58.021800010465086,2.9664000030606985,경상북도 안동시 와룡면,경상북도 안동시 와룡면 가야리,경상북도 안동시 와룡면 지내리,True,True
37.69290702270625,128.7006663162469,강원특별자치도 평창군 대관령면 차항리 16-12,50.09579999023117,0.8046999864745885,강원특별자치도 평창군 대관령면,강원특별자치도 평창군 진부면,강원특별자치도 평창군 대관령면 횡계리,True,True
37.2567913523492,126.29497044957823,인천광역시 옹진군 자월면 자월리 1384,52.54920000152197,2.028599992627278,인천광역시 옹진군 자월면,인천광역시 옹진군 자월면 자월리,인천광역시 옹진군 영흥면 외리,True,True
35.76374511678813,126.76588077563731,전북특별자치도 부안군 동진면 동전리 1188-36,33.7056999997003,1.9812000100500882,전북특별자치도 김제시 진봉면,전북특별자치도 부안군 동진면,전북특별자치도 부안군 동진면 동전리,False,True
37.05313498649817,127.8604043872521,충청북도 충주시 중앙탑면 장천리 산 73,29.613499995321035,0.9741999965626746,충청북도 충주시 중앙탑면,충청북도 충주시 중앙탑면 장천리,충청북도 충주시 금가면,True,True
37.48219811756682,127.12055420643148,서울특별시 송파구 문정동 653,29.02610000455752,2.4043000012170523,서울특별시 송파구 문정동,서울특별시 송파구 가락동,서울특별시 송파구 장지동,True,True
37.109096849522956,128.9308488044375,강원특별자치도 태백시 혈동 산 87-2,32.18589999596588,3.085999996983446,강원특별자치도 태백시 혈동,강원특별자치도 태백시 소도동,강원특별자치도 영월군 상동읍,True,True
37.04521336269581,127.39353434112036,경기도 안성시 죽산면 장계리 711-30,29.547800004365854,3.027199985808693,경기도 안성시 죽산면,경기도 안성시 삼죽면,경기도 안성시 죽산면 장계리,True,True
37.91296765479156,127.03167315335234,경기도 동두천시 상패동 504,32.967199993436225,2.627199995913543,경기도 동두천시 상패동,경기도 양주시 은현면,경기도 동두천시 안흥동,True,True
34.439976249222674,126.13404955248693,전라남도 진도군 지산면 와우리 473-1,32.15680000721477,3.225899999961257,전라남도 진도군 지산면,전라남도 진도군 조도면,전라남도 진도군 지산면 와우리,True,True
36.38549672990287,127.60479011162539,충청북도 옥천군 군북면 막지리 산 37-5,52.88440000731498,3.530400004819967,충청북도 옥천군 안내면,충청북도 옥천군 군북면,충청북도 옥천군 군북면 막지리,False,True
37.0021623859459,126.98425692844765,경기도 평택시 오성면 숙성리 979-12,30.791099998168647,3.0666999955428764,경기도 평택시 오성면,경기도 평택시 오성면 숙성리,경기도 평택시 오성면 당거리,True,True
36.27238978382151,126.97777161907037,충청남도 부여군 석성면 정각리 산 42,34.144899997045286,3.3777000062400475,충청남도 부여군 부여읍,충청남도 부여군 석성면 정각리,충청남도 부여군 초촌면 신암리,False,True
35.509284489038265,128.08743697010468,경상남도 합천군 용주면 황계리 산 201,48.040199995739385,3.0372000037459657,경상남도 합천군 용주면,경상남도 합천군 용주면 황계리,경상남도 합천군 용주면 용지리,True,True
35.190746540113345,126.57263432450013,전라남도 함평군 해보면 금계리 산 42-2,31.560200004605576,3.529800000251271,전라남도 함평군 해보면,전라남도 함평군 해보면 금계리,전라남도 함평군 월야면,True,True
38.13526431105799,127.72616607380752,강원특별자치도 화천군 화천읍 풍산리 산 108-1,31.369200005428866,2.2356999979820102,강원특별자치도 화천군 화천읍,강원특별자치도 화천군 화천읍 신읍리,강원특별자치도 화천군 하남면,True,True
37.69936631419763,128.81736057859834,강원특별자치도 강릉시 성산면 오봉리 산 114,30.374699999811128,2.3876999912317842,강원특별자치도 강릉시 성산면,강원특별자치도 강릉시 성산면 오봉리,강원특별자치도 강릉시 성산면 어흘리,True,True
37.45625555169226,127.96005574519738,강원특별자치도 횡성군 횡성읍 모평리 산 10,49.39850000664592,2.8357999981381,강원특별자치도 원주시 호저면,강원특별자치도 횡성군 횡성읍,강원특별자치도 원주시 호저면 광격리,False,True
37.86861148793767,126.76829472074701,경기도 파주시 문산읍 당동리 산 82,57.786399993347004,1.0221999982604757,경기도 파주시 문산읍,경기도 파주시 문산읍 당동리,경기도 파주시 문산읍 사목리,True,True
35.41042316467284,127.83504315330252,경상남도 산청군 금서면 향양리 32-11,27.446400010376237,1.565599988680333,경상남도 산청군 금서면,경상남도 산청군 금서면 평촌리,경상남도 산청군 금서면 향양리,True,True
36.99207148388276,129.2022454057436,경상북도 울진군 금강송면 소광리 산 57-1,46.34499999519903,3.001000004587695,경상북도 울진군 금강송면,경상북도 울진군 금강송면 소광리,경상북도 울진군 금강송면 쌍전리,True,True
35.27827395630395,127.62422314469777,경상남도 하동군 화개면 범왕리 산 28,134.73990000784397,2.651899994816631,경상남도 하동군 화개면,경상남도 하동군 화개면 범왕리,경상남도 하동군 화개면 대성리,True,True
37.0531716837656,127.89731287124165,충청북도 충주시 금가면 잠병리 896-5,50.62090000137687,0.9126999939326197,충청북도 충주시 중앙탑면,충청북도 충주시 금가면,충청북도 충주시 금가면 하담리,False,True
34.55691947268142,126.51560552032875,전라남도 해남군 황산면 원호리 1128-3,130.48130000242963,1.4497999945888296,전라남도 해남군 해남읍,전라남도 해남군 황산면,전라남도 해남군 해남읍 부호리,False,True
37.73094117344629,128.3253020704202,강원특별자치도 홍천군 내면 율전리 1694,27.965500004938804,1.1665000056382269,강원특별자치도 홍천군 내면,강원특별자치도 홍천군 내면 율전리,강원특별자치도 홍천군 내면 자운리,True,True
36.27690211163434,127.27167701668573,대전광역시 유성구 송정동 산 21-15,30.542599997716025,2.358400000957772,대전광역시 유성구 방동,충청남도 계룡시 두마면 두계리,대전광역시 유성구 송정동,False,True
37.007337665269354,127.70576063065674,충청북도 충주시 신니면 문숭리 320,29.155600001104176,1.458800004911609,충청북도 충주시 신니면,충청북도 충주시 신니면 문숭리,충청북도 충주시 노은면,True,True
35.21412157518263,126.54130266962697,전라남도 영광군 불갑면 모악리 산 24,54.28579999716021,3.4922000049846247,전라남도 영광군 묘량면,전라남도 영광군 불갑면,전라남도 영광군 불갑면 모악리,False,True
34.95638393318016,127.41059651845332,전라남도 순천시 상사면 도월리 산 246,32.49949999735691,3.5279000003356487,전라남도 순천시 상사면,전라남도 순천시 상사면 용계리,전라남도 순천시 상사면 도월리,True,True
36.7404204590364,129.00911938783403,경상북도 영양군 청기면 무진리 산 223-1,31.459799996810034,2.5938000035239384,경상북도 영양군 청기면,경상북도 영양군 청기면 무진리,경상북도 영양군 청기면 기포리,True,True
37.632331032625395,127.65559636537509,강원특별자치도 홍천군 서면 대곡리 산 71,48.27520000981167,1.8053999956464395,강원특별자치도 홍천군 서면,경기도 양평군 단월면,강원특별자치도 홍천군 서면 대곡리,True,True
36.78513295375944,129.34582130030134,경상북도 울진군 기성면 이평리 산 196,26.074199995491654,1.6392999968957156,경상북도 울진군 기성면,경상북도 울진군 온정면 선구리,경상북도 울진군 기성면 이평리,True,True
34.997151671982415,126.82358670405713,전라남도 나주시 다도면 풍산리 242-3,25.243700001738034,1.8509000074118376,전라남도 나주시 남평읍,전라남도 나주시 다도면 풍산리,전라남도 나주시 다도면,False,True
37.739000694587666,127.06361249552722,경기도 의정부시 신곡동 133-3,30.868799993186258,2.7750000008381903,경기도 의정부시 신곡동,경기도 의정부시 용현동,경기도 의정부시 금오동,True,True
36.54801927718221,128.1724042477405,경상북도 상주시 함창읍 신흥리 1020,52.82250000163913,1.0085999965667725,경상북도 상주시 함창읍,경상북도 상주시 함창읍 신흥리,경상북도 상주시 이안면 이안리,True,True
35.62367101715595,126.78943563449039,전북특별자치도 정읍시 고부면 장문리 산 32,26.564100000541657,1.3860000035492703,전북특별자치도 정읍시 고부면,전라북도 정읍시 고부면 장문리,전북특별자치도 정읍시 고부면 장문리,True,True
36.07378116200363,127.35601800997418,전북특별자치도 완주군 운주면 산북리 68-11,52.136199999949895,0.9308999869972467,전북특별자치도 완주군 운주면,충청남도 금산군 남이면 건천리,전북특별자치도 완주군 운주면 고당리,True,True
36.77843924456307,126.6412825606393,충청남도 서산시 운산면 팔중리 산 77,28.428399993572384,0.996700007817708,충청남도 서산시 운산면,충청남도 당진시 면천면,충청남도 서산시 운산면 팔중리,True,True
37.64415999535807,126.79019536251978,경기도 고양시 일산동구 백석동 1541-4,26.663299999199808,1.9732999935513362,경기도 고양시 일산동구 백석동,경기도 고양시 덕양구 내곡동,경기도 고양시 덕양구 신평동,True,True
34.65050204335267,127.38685852904985,전라남도 고흥군 점암면 모룡리 산 48-8,26.87109999533277,2.5236999936169013,전라남도 고흥군 점암면,전라남도 고흥군 과역면,전라남도 고흥군 점암면 사정리,True,True
35.08636672219233,129.066815656051,부산광역시 영도구 청학동 74-1,32.90500000002794,3.2233000092674047,부산광역시 영도구 동삼동,부산광역시 사하구 다대동,부산광역시 영도구 청학동,False,True
36.2122226850948,127.31653932827534,충청남도 논산시 벌곡면 어곡리 산 42,27.93690000544302,2.8700000111712143,충청남도 논산시 벌곡면,충청남도 논산시 벌곡면 어곡리,대전광역시 서구 오동,True,True
37.329681792913526,128.70954917984653,강원특별자치도 정선군 남면 낙동리 산 86,33.19050000573043,0.7432999991578981,강원특별자치도 정선군 화암면,강원특별자치도 정선군 남면,강원특별자치도 정선군 정선읍,False,True
36.40107416879045,127.11519471288484,충청남도 공주시 오곡동 산 29-4,25.85479999834206,1.707400006125681,충청남도 공주시 오곡동,충청남도 공주시 계룡면,충청남도 공주시 이인면,True,True
36.92699853547539,127.65428851282283,충청북도 음성군 음성읍 초천리 산 71,40.14399999869056,1.6734000091673806,충청북도 음성군 음성읍,충청북도 음성군 원남면,충청북도 음성군 음성읍 초천리,True,True
34.68645651739297,126.70023608628003,전라남도 강진군 성전면 월평리 637-2,33.53400000196416,2.0558999967761338,전라남도 강진군 성전면,전라남도 해남군 계곡면,전라남도 강진군 성전면 월평리,True,True
38.229127296621066,128.4918027063012,강원특별자치도 고성군 토성면 신평리 471-60,46.29299999214709,0.704799997038208,강원특별자치도 고성군 토성면,강원특별자치도 고성군 토성면 신평리,강원특별자치도 고성군 토성면 인흥리,True,True
37.78213379739607,126.83515263743638,경기도 파주시 조리읍 오산리 산 82-8,25.26949999446515,0.8827999990899116,경기도 파주시 광탄면,경기도 파주시 광탄면 신산리,경기도 파주시 조리읍 오산리,False,True
34.45057032432289,126.3450720884893,전라남도 진도군 고군면 향동리 산 244-2,48.278700007358566,0.9127000084845349,전라남도 진도군 의신면,전라남도 진도군 고군면,전라남도 진도군 고군면 금계리,False,True
35.01591716204553,127.95184270197365,경상남도 사천시 서포면 내구리 96-8,28.12659999472089,0.9410000056959689,경상남도 하동군 금남면 중평리,경상남도 하동군 금남면,경상남도 사천시 서포면,False,True
34.84684217721552,126.57926013693624,전라남도 영암군 시종면 봉소리 1190,27.889999997569248,2.6114999927813187,전라남도 영암군 시종면,전라남도 영암군 시종면 봉소리,전라남도 영암군 시종면 신학리,True,True
35.89275088150118,128.57923636335454,대구광역시 북구 침산동 1410-16,50.39410000608768,2.675899988389574,대구광역시 북구 침산동,대구광역시 북구 노원동3가,대구광역시 서구 비산동,True,True
36.705100333951926,127.31019135994246,충청북도 청주시 흥덕구 옥산면 장동리 산 54,43.254100004560314,2.8415999986464158,충청북도 청주시 흥덕구 옥산면,충청북도 청주시흥덕구 옥산면 장동리,충청남도 천안시 동남구 수신면,True,True
36.91805653514064,126.57250422828933,충청남도 당진시 고대면 옥현리 235-7,42.15490000206046,1.1546000023372471,충청남도 당진시 고대면,충청남도 당진시 고대면 옥현리,충청남도 당진시 대호지면,True,True
35.60859684531229,127.14457949930703,전북특별자치도 임실군 운암면 청운리 산 89,26.0437999968417,1.110299999709241,전북특별자치도 임실군 운암면,전북특별자치도 임실군 운암면 청운리,전라북도 임실군 운암면 청운리,True,True
36.63599688556995,126.47422597570588,충청남도 서산시 고북면 사기리 954,24.433300000964664,0.9362999990116805,충청남도 서산시 고북면 사기리,충청남도 서산시 고북면,충청남도 서산시 부석면,True,True
37.04388977596261,126.43425929696157,충청남도 당진시 석문면 난지도리 148-32,21.68109999911394,1.1709000100381672,충청남도 당진시 석문면 난지도리,충청남도 당진시 석문면,충청남도 서산시 대산읍,True,True
36.02433955172867,128.32233480072765,경상북도 칠곡군 약목면 남계리 산 29-1,24.634599991259165,1.938400004291907,경상북도 칠곡군 북삼읍,경상북도 칠곡군 약목면 남계리,경상북도 성주군 월항면,False,True
35.48086573168816,129.07082540662253,경상남도 양산시 하북면 초산리 산 22-11,27.214399990043603,0.8760999917285517,경상남도 양산시 하북면,경상남도 양산시 하북면 지산리,경상남도 양산시 원동면,True,True
37.292912680655434,126.8849853719385,경기도 안산시 상록구 팔곡이동 189-2,31.992600008379668,3.3524999889777973,경기도 안산시 상록구 팔곡이동,경기도 화성시 매송면,경기도 안산시 상록구 본오동,True,True
36.85924991954326,127.51527450794333,충청북도 진천군 초평면 오갑리 산 34,46.135500000673346,1.6750000067986548,충청북도 진천군 초평면,충청북도 진천군 초평면 오갑리,충청북도 진천군 초평면 금곡리,True,True
35.799512072979695,128.58750488289886,대구광역시 달성군 가창면 오리 산 303,42.79359999054577,1.299199997447431,대구광역시 달성군 가창면,대구광역시 달성군 가창면 오리,대구광역시 달서구 도원동,True,True
36.30192463593128,129.161613016345,경상북도 청송군 부남면 이현리 산 146,49.625499988906085,3.0737000051885843,경상북도 청송군 부남면,경상북도 포항시 북구 죽장면,경상북도 청송군 주왕산면,True,True
35.15409974194729,128.8004053917441,부산광역시 강서구 지사동 산 101,40.59219999180641,3.872899993439205,경상남도 김해시 관동동,부산광역시 강서구 지사동,경상남도 김해시 율하동,False,True
34.80169615459758,126.11299884271304,전라남도 신안군 암태면 와촌리 2106,42.54629999923054,1.191499992273748,전라남도 신안군 암태면,전라남도 신안군 팔금면,전라남도 신안군 안좌면,True,True
37.35487188095335,127.52070276426797,경기도 여주시 흥천면 복대리 301-1,25.669199996627867,2.0610000065062195,경기도 여주시 흥천면,경기도 여주시 흥천면 복대리,경기도 여주시 금사면,True,True
37.60392849302984,127.18538114634917,경기도 남양주시 이패동 606,27.65559998806566,1.8866000027628615,경기도 남양주시 이패동,경기도 남양주시 와부읍,경기도 남양주시 다산동,True,True
37.1265188935351,128.36237482323207,충청북도 단양군 어상천면 임현리 산 52-1,27.833700005430728,1.0968999995384365,강원특별자치도 영월군 남면,충청북도 단양군 어상천면,충청북도 단양군 어상천면 임현리,False,True
37.7129427191885,127.7231174924441,강원특별자치도 홍천군 북방면 구만리 산 127,28.59419999003876,1.067200006218627,강원특별자치도 홍천군 북방면,강원특별자치도 홍천군 북방면 구만리,강원특별자치도 홍천군 북방면 원소리,True,True
37.54991386747535,127.52392307088101,경기도 양평군 옥천면 용천리 산 27,28.215099999215454,1.3854000135324895,경기도 양평군 옥천면,경기도 양평군 옥천면 용천리,경기도 양평군 용문면,True,True
35.77837792056011,126.63383615407996,전북특별자치도 부안군 계화면 계화리 1857,25.8618999941973,1.1192000092705712,전라북도 김제시 진봉면 심포리,전북특별자치도 김제시 진봉면 심포리,전북특별자치도 김제시 진봉면,False,False
36.68893789611585,127.63618094584967,충청북도 청주시 상당구 미원면 종암리 산 79-1,38.66809999453835,1.1616999981924891,충청북도 청주시 상당구 미원면,충청북도 청주시 상당구 미원면 종암리,충청북도 청주시 상당구 미원면 화원리,True,True
36.41238032958655,128.81696278344478,경상북도 의성군 옥산면 신계리 산 94,29.38749999157153,3.28619999345392,경상북도 의성군 옥산면,경상북도 안동시 길안면,경상북도 의성군 점곡면,True,True
38.2210466435581,127.92354602455434,강원특별자치도 양구군 방산면 현리 산 1,42.25949999818113,1.2260999938007444,강원특별자치도 양구군 방산면,강원특별자치도 양구군 방산면 송현리,강원특별자치도 양구군 방산면 현리,True,True
37.41030526032331,127.50203204718244,경기도 여주시 금사면 하호리 22-2,23.656799996388145,0.9012999944388866,경기도 여주시 금사면,경기도 여주시 금사면 하호리,경기도 여주시 금사면 소유리,True,True
37.293255750392404,129.17095125286048,강원특별자치도 삼척시 노곡면 하마읍리 산 129,29.30019999621436,2.555300001404248,강원특별자치도 삼척시 노곡면,강원특별자치도 삼척시 근덕면,강원특별자치도 삼척시 노곡면 하마읍리,True,True
34.99574065831475,128.3194435839775,경상남도 고성군 고성읍 대평리 139-11,26.975200002198108,1.1872000031871721,경상남도 고성군 고성읍,경상남도 고성군 고성읍 대평리,경상남도 고성군 대가면,True,True
36.22810753516401,129.14736420804076,경상북도 포항시 북구 죽장면 석계리 산 1-1,50.31780000717845,1.6857000009622425,경상북도 포항시 북구 죽장면,경상북도 청송군 부남면,경상북도 포항시 북구 죽장면 석계리,True,True
37.123888338835116,127.27458192510701,경기도 안성시 고삼면 쌍지리 산 136-8,32.69900000304915,0.8850000012898818,경기도 안성시 양성면,경기도 안성시 양성면 미산리,경기도 안성시 고삼면 쌍지리,False,True
35.36302217130036,128.23727402116373,경상남도 의령군 가례면 괴진리 산 47,27.146099993842654,0.975800008745864,경상남도 의령군 가례면,경상남도 의령군 가례면 괴진리,경상남도 의령군 용덕면,True,True
35.48098791950289,128.20704451782845,경상남도 합천군 대양면 안금리 산 151,48.89179999008775,0.9703000105218962,경상남도 합천군 대양면,경상남도 합천군 쌍백면,경상남도 합천군 쌍백면 대곡리,True,True
36.2997812159845,128.60778753284507,경상북도 의성군 봉양면 구산리 산 16-1,45.103099997504614,0.9119000023929402,경상북도 의성군 봉양면,경상북도 의성군 봉양면 구산리,경상북도 의성군 봉양면 길천리,True,True
34.94550190550586,126.83591533708257,전라남도 나주시 다도면 신동리 산 11-3,26.540899998508394,1.4552999928127974,전라남도 나주시 다도면,전라남도 나주시 봉황면,전라남도 화순군 도암면,True,True
36.769176459777114,128.31024485571083,경상북도 문경시 동로면 노은리 285-1,33.08680000191089,0.8202000026358292,경상북도 문경시 동로면,경상북도 문경시 산북면,경상북도 문경시 동로면 적성리,True,True
36.689930181267954,127.10153089391213,충청남도 천안시 동남구 광덕면 대덕리 산 3-1,24.882400000933558,1.0382000036770478,충청남도 천안시 동남구 광덕면,충청남도 천안시 동남구 광덕면 대덕리,충청남도 천안시 동남구 광덕면 무학리,True,True
36.922279911087536,128.36597542488937,충청북도 단양군 대강면 당동리 산 39-5,48.98490000050515,1.4694999990751967,충청북도 단양군 대강면,충청북도 단양군 단양읍,충청북도 단양군 대강면 두음리,True,True
35.11733632443713,126.8610680863649,광주광역시 서구 매월동 947,44.44359999615699,2.8987999976379797,광주광역시 서구 매월동,광주광역시 서구 풍암동,광주광역시 서구 금호동,True,True
37.969748134962316,128.58422855428785,강원특별자치도 양양군 서면 서림리 산 89,47.16099999495782,2.2006000071996823,강원특별자치도 양양군 서면,강원특별자치도 양양군 현북면,강원특별자치도 양양군 서면 서림리,True,True
38.00299383939341,127.01322392164663,경기도 연천군 전곡읍 마포리 산 14-1,30.095399997662753,1.1525000008987263,경기도 연천군 전곡읍,경기도 연천군 전곡읍 마포리,경기도 연천군 전곡읍 양원리,True,True
37.75986688383374,127.9185459960418,강원특별자치도 홍천군 화촌면 송정리 441,32.872999989194795,0.684200000250712,강원특별자치도 홍천군 화촌면,강원특별자치도 홍천군 화촌면 구성포리,강원특별자치도 홍천군 북방면,True,True
35.721476983982384,127.5456339527285,전북특별자치도 장수군 천천면 춘송리 산 129-1,26.573700000881217,1.2715000048046932,전북특별자치도 장수군 천천면,전북특별자치도 장수군 계남면,전북특별자치도 장수군 장계면,True,True
37.148100841957614,127.06629177634329,경기도 오산시 오산동 605-17,25.199800002155825,0.9898999996948987,경기도 오산시 오산동,경기도 오산시 원동,경기도 평택시 진위면,True,True
36.398251268854125,128.07890135795068,경상북도 상주시 내서면 신촌리 산 154-3,23.269099998287857,1.028499988024123,경상북도 상주시 내서면,경상북도 상주시 내서면 신촌리,경상북도 상주시 외서면,True,True
35.1601334062533,128.11465063790152,경상남도 진주시 호탄동 769,30.661400000099093,1.061699993442744,경상남도 진주시 정촌면,경상남도 진주시 가좌동,경상남도 진주시 호탄동,False,True
37.25134276566178,128.01199917919342,강원특별자치도 원주시 판부면 금대리 산 120,43.90129999956116,0.9618000040063635,강원특별자치도 원주시 판부면,충청북도 제천시 백운면,강원특별자치도 원주시 판부면 금대리,True,True
37.17616255394298,128.83225469194628,강원특별자치도 정선군 고한읍 고한리 산 1-227,22.785200009820983,1.0519999923417345,강원특별자치도 영월군 상동읍,강원특별자치도 영월군 상동읍 구래리,강원특별자치도 정선군 고한읍,False,True
35.805571500619216,127.16349892167683,전북특별자치도 전주시 완산구 동서학동 1050-2,24.8723999975482,2.2406000061891973,전북특별자치도 전주시 완산구 동서학동,전북특별자치도 전주시 완산구 대성동,전북특별자치도 전주시 완산구 교동,True,True
35.5019710199749,126.47314626798354,전북특별자치도 고창군 해리면 광승리 737,27.455100003862754,2.7402999985497445,전북특별자치도 고창군 해리면,전북특별자치도 고창군 해리면 광승리,전라북도 고창군 해리면 광승리,True,True
38.1983469485066,127.19305057816169,강원특별자치도 철원군 동송읍 이평리 산 142,24.664700002176687,1.717599996482022,강원특별자치도 철원군 동송읍,경기도 연천군 신서면,강원특별자치도 철원군 갈말읍,True,True
36.621697606325306,126.4111987907862,충청남도 서산시 부석면 간월도리 311,25.60720000474248,1.9738999981200323,충청남도 서산시 부석면,충청남도 서산시 부석면 간월도리,충청남도 태안군 안면읍,True,True
35.3166437367256,128.7775961794793,경상남도 김해시 진영읍 본산리 산 3-8,44.957899997825734,2.2229000023799017,경상남도 김해시 한림면,경상남도 김해시 진영읍,경상남도 김해시 진영읍 본산리,False,True
36.31917397627005,127.2148751070197,충청남도 계룡시 신도안면 부남리 산 11-1,25.356500002089888,2.3717000003671274,충청남도 계룡시 신도안면 부남리,충청남도 계룡시 신도안면,충청남도 논산시 상월면,True,True
36.74451719841133,129.1050808608963,경상북도 영양군 일월면 가곡리 산 27,24.972800005343743,1.534800001536496,경상북도 영양군 일월면,경상북도 영양군 청기면,경상북도 영양군 일월면 오리리,True,True
38.29409224555103,127.9382189417601,강원특별자치도 양구군 방산면 건솔리 산 1,35.63389999908395,2.395899995462969,강원특별자치도 양구군 방산면 건솔리,강원특별자치도 양구군 방산면,강원특별자치도 양구군 방산면 천미리,True,True
35.146000096759344,128.04289001226797,경상남도 진주시 내동면 삼계리 산 108-1,35.68760000052862,4.7642000135965645,경상남도 진주시 내동면,경상남도 진주시 내동면 삼계리,경상남도 진주시 내동면 독산리,True,True
36.95438358780661,128.26264561520793,충청북도 단양군 적성면 성곡리 산 1-1,28.302599996095523,3.1913000129861757,충청북도 단양군 적성면,충청북도 제천시 수산면,충청북도 제천시 수산면 상천리,True,True
38.1284935743993,127.65215341786929,강원특별자치도 화천군 상서면 구운리 산 56,50.945700000738725,0.6461000011768192,강원특별자치도 화천군 하남면,강원특별자치도 화천군 상서면,강원특별자치도 화천군 하남면 논미리,False,True
34.76707846132572,126.51063519004224,전라남도 영암군 삼호읍 동호리 1519-1,23.138700009440072,0.9897999989334494,전라남도 영암군 삼호읍,전라남도 영암군 삼호읍 산호리,전라남도 영암군 삼호읍 동호리,True,True
35.25231899368227,129.22126082834268,부산광역시 기장군 기장읍 동부리 산 3-9,49.02059999585617,2.6286999927833676,부산광역시 기장군 기장읍,부산광역시 기장군 일광읍,부산광역시 기장군 일광읍 삼성리,True,True
34.97385285198198,128.23835845125936,경상남도 고성군 상리면 자은리 산 85-3,48.1737000081921,1.6084000089904293,경상남도 고성군 삼산면,경상남도 고성군 상리면,경상남도 고성군 상리면 자은리,False,True
35.47259435203939,127.42082598778393,전북특별자치도 남원시 산동면 목동리 산 110-2,26.317800002289005,3.5377000021981075,전라북도 남원시 산동면 목동리,전북특별자치도 남원시 산동면 목동리,전북특별자치도 남원시 보절면,False,True
35.59547341059296,128.86779440021706,경상남도 밀양시 산내면 봉의리 산 99,48.25870000058785,1.037399997585453,경상남도 밀양시 산내면,경상남도 밀양시 산내면 봉의리,경상북도 청도군 매전면,True,True
37.984580881016925,127.99180462353858,강원특별자치도 인제군 남면 수산리 산 46-1,46.036600004299544,1.4102999994065613,강원특별자치도 춘천시 북산면,강원특별자치도 인제군 남면,강원특별자치도 춘천시 북산면 대곡리,False,True
36.303555794302035,127.71590306292677,충청북도 옥천군 청성면 장수리 663-2,55.756100002327,3.0138000001898035,충청북도 옥천군 청성면,충청북도 옥천군 청성면 양저리,충청북도 옥천군 청성면 고당리,True,True
35.031374617942696,126.79965931557618,전라남도 나주시 산포면 매성리 1202-8,22.81720000610221,1.9586000125855207,전라남도 나주시 산포면,전라남도 나주시 남평읍,전라남도 나주시 금천면,True,True
36.13735620998775,128.30484436712632,경상북도 구미시 선기동 284-1,30.57049999188166,3.0113999964669347,경상북도 구미시 선기동,경상북도 구미시 고아읍,경상북도 김천시 아포읍,True,True
36.07521325159739,126.9443875148169,전북특별자치도 익산시 성당면 와초리 50,37.10570000112057,3.4666999999899417,전북특별자치도 익산시 성당면,전북특별자치도 익산시 함열읍,전북특별자치도 익산시 웅포면,True,True
34.300193368802745,126.07856509131491,전라남도 진도군 조도면 신육리 산 22,30.453899991698563,2.8679000097326934,전라남도 진도군 조도면,전라남도 진도군 조도면 창유리,전라남도 진도군 조도면 신육리,True,True
36.473681240822415,126.76284691214246,충청남도 청양군 비봉면 용천리 산 89-3,28.621199991903268,3.6549999931594357,충청남도 청양군 비봉면,충청남도 홍성군 장곡면,충청남도 청양군 청양읍,True,True
36.53400034973069,129.28695240206838,경상북도 영덕군 창수면 신기리 산 180-1,26.711700003943406,3.5417999897617847,경상북도 영덕군 영해면,경상북도 영덕군 영해면 대동리,경상북도 영덕군 창수면,False,True
37.94357718282711,127.03743295981852,경기도 동두천시 안흥동 산 3,27.42519999446813,3.015899987076409,경기도 연천군 전곡읍,경기도 동두천시 상봉암동,경기도 동두천시 안흥동,False,True
35.97659525874811,127.64133301306269,전북특별자치도 무주군 무주읍 가옥리 743,28.1053999933647,3.541500002029352,전북특별자치도 무주군 적상면,전북특별자치도 무주군 부남면,전북특별자치도 무주군 무주읍,False,True
36.47136652728994,128.51632319932185,경상북도 의성군 신평면 교안리 산 33-1,27.274500011117198,1.9366999913472682,경상북도 의성군 신평면,경상북도 의성군 안사면,경상북도 안동시 풍천면,True,True
36.119718367500376,127.51869660503836,충청남도 금산군 제원면 수당리 819,27.406799999880604,3.440600004978478,충청남도 금산군 제원면,충청남도 금산군 군북면,충청남도 금산군 제원면 수당리,True,True
37.16813297435482,126.82693744867325,경기도 화성시 남양읍 안석리 73,44.15770000196062,0.9900000004563481,경기도 화성시 우정읍,경기도 화성시 남양읍,경기도 화성시 남양읍 안석리,False,True
38.236774148765285,127.95318903456702,강원특별자치도 양구군 방산면 송현리 산 1,24.51479999581352,0.628800000413321,강원특별자치도 양구군 방산면,강원특별자치도 양구군 방산면 송현리,강원특별자치도 양구군 방산면 고방산리,True,True
37.891497314992655,127.11179923650602,경기도 동두천시 탑동동 360,41.799800004810095,0.7617999945068732,경기도 동두천시 탑동동,경기도 동두천시 광암동,경기도 포천시 신북면,True,True
36.41257499786336,127.30046844331001,대전광역시 유성구 안산동 243-1,51.451100007398054,0.9515999990981072,세종특별자치시 금남면,대전광역시 유성구 안산동,충청남도 공주시 반포면,False,True
36.21083313816696,128.54937031617973,대구광역시 군위군 군위읍 수서리 760-2,25.413199997274205,0.8832000021357089,대구광역시 군위군 군위읍,대구광역시 군위군 군위읍 수서리,대구광역시 군위군 효령면,True,True
34.35905649647067,127.01762954916705,전라남도 완도군 금일읍 장정리 산 122,30.943600009777583,0.8553000079700723,전라남도 완도군 약산면 관산리,전라남도 완도군 금일읍,전라남도 완도군 금일읍 장정리,False,True
36.540055609205254,127.02916821332403,충청남도 공주시 사곡면 가교리 135,28.746399999363348,0.9002000006148592,충청남도 공주시 사곡면,충청남도 공주시 사곡면 가교리,충청남도 공주시 우성면,True,True
35.56660761281398,128.22276805998473,경상남도 합천군 율곡면 낙민리 산 129,25.59040000778623,0.9676000045146793,경상남도 합천군 율곡면,경상남도 합천군 율곡면 영전리,경상남도 합천군 율곡면 낙민리,True,True
37.716774130468615,128.65040749690897,강원특별자치도 평창군 대관령면 유천리 산 1,28.461699999752454,1.2533999979496002,강원특별자치도 평창군 진부면,강원특별자치도 평창군 대관령면,강원특별자치도 평창군 대관령면 병내리,False,True
35.6328641102398,127.48874781497575,전북특별자치도 장수군 장수읍 송천리 산 82-2,47.181599991745315,1.8527999927755445,전북특별자치도 장수군 장수읍,전라북도 장수군 장수읍 송천리,전북특별자치도 장수군 장수읍 송천리,True,True
37.35499074979562,127.23911320827477,경기도 용인시 처인구 모현읍 일산리 586-1,40.19120000884868,0.9065000049304217,경기도 용인시 처인구 모현읍,경기도 용인시 처인구 모현읍 일산리,경기도 광주시 매산동,True,True
35.385949850043,127.67275365544326,경상남도 함양군 마천면 가흥리 산 152,24.585000006482005,1.392999998643063,경상남도 함양군 마천면,전북특별자치도 남원시 산내면,경상남도 함양군 마천면 가흥리,True,True
36.7699814730024,127.65340532055434,충청북도 괴산군 청안면 효근리 산 37,57.8887999872677,1.5950000088196248,충청북도 괴산군 청안면,충청북도 증평군 증평읍,충청북도 괴산군 청안면 효근리,True,True
35.51039233388141,129.41453509751688,울산광역시 동구 화정동 산 26-1,25.944600012735464,1.3574000040534884,울산광역시 동구 방어동,울산광역시 동구 화정동,울산광역시 동구 전하동,False,True
35.59203720332028,128.7194525690317,경상북도 청도군 청도읍 평양리 산 279,36.11659999296535,0.9444000024814159,경상북도 청도군 청도읍,경상북도 청도군 청도읍 평양리,경상북도 청도군 청도읍 상리,True,True
36.45240114357883,127.31793197416972,세종특별자치시 금남면 영대리 산 139-2,24.53399999649264,1.0826999932760373,세종특별자치시 금남면,세종특별자치시 금남면 영대리,세종특별자치시 금남면 영치리,True,True
37.24799562440098,128.25278148134367,강원특별자치도 영월군 주천면 신일리 산 424,25.183199992170557,1.4020999951753765,강원특별자치도 영월군 주천면,강원특별자치도 영월군 주천면 금마리,충청북도 제천시 송학면,True,True
34.72487077215303,126.4597749294146,전라남도 영암군 삼호읍 난전리 2167-3,25.756300005014054,1.0929999989457428,전라남도 영암군 삼호읍,전라남도 영암군 삼호읍 난전리,전라남도 해남군 산이면,True,True
34.7042086675965,126.4338087435166,전라남도 해남군 산이면 덕송리 1088,47.28420000174083,1.2593999999808148,전라남도 영암군 삼호읍,전라남도 해남군 산이면,전라남도 해남군 산이면 덕송리,False,True
35.9392338005405,128.51438813374006,경상북도 칠곡군 지천면 낙산리 산 111-2,28.892300004372373,1.0118999925907701,경상북도 칠곡군 지천면,경상북도 칠곡군 지천면 낙산리,경상북도 칠곡군 지천면 덕산리,True,True
37.6119255616616,127.93317676014948,강원특별자치도 홍천군 영귀미면 월운리 산 140-1,26.374399996711873,0.8146999898599461,강원특별자치도 횡성군 공근면,강원특별자치도 홍천군 영귀미면,강원특별자치도 홍천군 영귀미면 월운리,False,True
35.866802842448365,126.80853454662027,전북특별자치도 김제시 만경읍 몽산리 825,28.83049999945797,1.1156999971717596,전북특별자치도 군산시 개사동,전북특별자치도 김제시 진봉면,전북특별자치도 김제시 만경읍,False,True
34.73648378757308,127.02413780617636,전라남도 보성군 웅치면 강산리 1590-7,96.81950000231154,1.8437999970046803,전라남도 보성군 웅치면,전라남도 장흥군 장동면,전라남도 보성군 보성읍,True,True
37.71897965160067,127.97164910519541,강원특별자치도 홍천군 화촌면 굴운리 산 119-27,28.691500003333203,2.3003999958746135,강원특별자치도 홍천군 화촌면,강원특별자치도 홍천군 영귀미면,강원특별자치도 홍천군 화촌면 굴운리,True,True
35.985487872531806,128.08090979971408,경상북도 김천시 지례면 대율리 산 35,31.75290000217501,3.6906000023009256,경상북도 김천시 조마면,경상북도 김천시 지례면,경상북도 김천시 조마면 신곡리,False,True
36.516213300169966,128.01423383591762,경상북도 상주시 은척면 황령리 산 150,30.43230000184849,1.9016000005649403,경상북도 상주시 외서면,경상북도 상주시 은척면,경상북도 상주시 외서면 대전리,False,True
36.532271255230285,127.33157304904299,세종특별자치시 합강동 22-30,25.43100000184495,1.777500001480803,세종특별자치시 연동면,세종특별자치시 세종동,세종특별자치시 연동면 명학리,False,False
37.79402937504057,128.5668540986301,강원특별자치도 평창군 진부면 동산리 산 1,62.28029998601414,1.779099999112077,강원특별자치도 평창군 진부면 동산리,강원특별자치도 홍천군 내면,강원특별자치도 홍천군 내면 광원리,True,True
35.267141890730194,126.93800013085846,전라남도 담양군 봉산면 삼지리 381-1,122.9594000033103,3.804200008744374,전라남도 담양군 봉산면,전라남도 담양군 봉산면 삼지리,전라남도 담양군 수북면,True,True
37.11331007303132,128.62359125729964,강원특별자치도 영월군 김삿갓면 와석리 산 1-1,28.873200004454702,2.8989999991608784,강원특별자치도 영월군 김삿갓면,강원특별자치도 영월군 김삿갓면 와석리,강원특별자치도 영월군 산솔면,True,True
34.90703335549957,127.1038420115861,전라남도 보성군 복내면 진봉리 1014-5,47.42699999769684,3.4417999995639548,전라남도 보성군 복내면,전라남도 보성군 복내면 진봉리,전라남도 보성군 복내면 용동리,True,True
35.6618331617096,127.94792521693365,경상남도 거창군 남하면 무릉리 산 298-2,32.63480000896379,3.2328000088455155,경상남도 거창군 남하면,경상남도 거창군 남상면,경상남도 거창군 거창읍,True,True
37.72309060669027,127.61451970061894,강원특별자치도 춘천시 남면 발산리 산 17,25.502300006337464,0.7446999952662736,강원특별자치도 춘천시 남면,강원특별자치도 춘천시 남산면,강원특별자치도 홍천군 서면,True,True
35.61221639444031,126.56977533599498,전북특별자치도 부안군 진서면 석포리 산 141-3,52.52179999661166,1.0099000064656138,전북특별자치도 부안군 진서면,전북특별자치도 부안군 변산면,전북특별자치도 부안군 진서면 석포리,True,True
37.57976854704241,127.49345997387032,경기도 가평군 설악면 가일리 산 58-1,42.11039999790955,1.017699993099086,경기도 양평군 옥천면,경기도 가평군 설악면,경기도 양평군 옥천면 용천리,False,True
34.62278201529908,127.7496511160668,전라남도 여수시 돌산읍 신복리 산 289,61.511000007158145,0.8525000012014061,전라남도 여수시 돌산읍,전라남도 여수시 남면,전라남도 여수시 화정면,True,True
36.29905139247521,128.3450878573535,경상북도 구미시 도개면 궁기리 산 31-6,28.309200002695434,1.0934999882010743,경상북도 구미시 도개면,경상북도 구미시 도개면 궁기리,경상북도 구미시 도개면 도개리,True,True
35.65860587576123,127.57180497466821,전북특별자치도 장수군 계남면 가곡리 산 64-1,26.17850000387989,1.7283999914070591,전북특별자치도 장수군 계남면,전북특별자치도 장수군 장수읍,전라북도 장수군 계남면 가곡리,True,True
34.920097939879376,126.79119278835837,전라남도 나주시 봉황면 운곡리 산 147,26.736599989817478,1.2332999904174358,전라남도 나주시 봉황면,전라남도 나주시 다도면,전라남도 나주시 다도면 암정리,True,True
38.29920656576377,127.94616033690792,강원특별자치도 양구군 방산면 건솔리 산 1,26.110299993888475,0.6012000085320324,강원특별자치도 양구군 방산면 건솔리,강원특별자치도 양구군 방산면,강원특별자치도 양구군 방산면 천미리,True,True
36.7999301066291,127.55778505073094,충청북도 증평군 증평읍 연탄리 750-2,142.34599999326747,1.0292000079061836,충청북도 진천군 초평면,충청북도 증평군 증평읍,충청북도 증평군 증평읍 연탄리,False,True
36.520569088344146,126.48964599128027,충청남도 홍성군 서부면 신리 664,27.567799988901243,0.869399998919107,충청남도 보령시 오천면,충청남도 태안군 안면읍,충청남도 홍성군 서부면 신리,False,True
36.833952205680134,128.13294675651,충청북도 제천시 한수면 송계리 산 15-2,79.9949999927776,0.7951000006869435,충청북도 제천시 덕산면 월악리,충청북도 제천시 덕산면,경상북도 문경시 문경읍,False,False
37.95823112774585,128.16732508768627,강원특별자치도 인제군 남면 정자리 산 130,27.979999998933636,0.8725000079721212,강원특별자치도 인제군 남면,강원특별자치도 인제군 인제읍,강원특별자치도 인제군 남면 소치리,True,True
35.68271307437721,127.15076618991691,전북특별자치도 임실군 신덕면 신흥리 산 83-1,51.16899999848101,1.072499988367781,전북특별자치도 완주군 구이면,전북특별자치도 임실군 신덕면,전북특별자치도 임실군 신덕면 삼길리,False,True
36.72353677581969,128.12272046882163,경상북도 문경시 문경읍 마원리 산 26,33.402100001694635,0.8084000000962988,경상북도 문경시 문경읍,경상북도 문경시 마성면,경상북도 문경시 문경읍 마원리,True,True
37.23155208027592,128.8648194588322,강원특별자치도 정선군 사북읍 사북리 산 45,29.491699999198318,0.796199994510971,강원특별자치도 정선군 사북읍,강원특별자치도 정선군 화암면 백전리,강원특별자치도 정선군 사북읍 사북리,True,True
35.02574823334799,126.41504961331381,전라남도 무안군 현경면 평산리 1116-1,36.530999990645796,0.9597000025678426,전라남도 무안군 현경면,전라남도 무안군 망운면,전라남도 무안군 현경면 외반리,True,True
34.820758055565534,126.57457773409351,전라남도 영암군 시종면 신학리 3026,27.11249999993015,0.982600002316758,전라남도 영암군 시종면 신학리,전라남도 영암군 시종면,전라남도 무안군 일로읍,True,True
35.6197391457857,126.80746107230853,전북특별자치도 정읍시 덕천면 상학리 산 53,24.33450000535231,1.3860000035492703,전라북도 정읍시 덕천면 하학리,전북특별자치도 정읍시 덕천면 하학리,전북특별자치도 정읍시 덕천면,False,True
36.002935878270804,129.17537781531877,경상북도 경주시 안강읍 옥산리 산 9,48.59520000172779,0.8864999981597066,경상북도 경주시 안강읍,경상북도 경주시 안강읍 옥산리,경상북도 경주시 안강읍 산대리,True,True
37.78781436068624,127.56066278930733,강원특별자치도 춘천시 남산면 방하리 산 95-1,25.578499989933334,0.8317000028910115,강원특별자치도 춘천시 남산면,경기도 가평군 가평읍,강원특별자치도 춘천시 남산면 방하리,True,True
36.923162916572146,127.4350429678572,충청북도 진천군 이월면 장양리 1108,28.869500005384907,3.602099997806363,충청북도 진천군 이월면,충청북도 진천군 이월면 장양리,충청북도 진천군 이월면 노원리,True,True
36.0871184121179,127.12583657428742,충청남도 논산시 연무읍 황화정리 산 91,54.944500006968156,1.4059999957680702,충청남도 논산시 연무읍,충청남도 논산시 연무읍 황화정리,충청남도 논산시 연무읍 고내리,True,True
37.23709537183418,128.3759772523655,강원특별자치도 영월군 한반도면 광전리 산 407,26.710599995567463,0.996700007817708,강원특별자치도 영월군 한반도면,강원특별자치도 영월군 남면,강원특별자치도 영월군 한반도면 광전리,True,True
37.050847554249344,128.08375710328778,충청북도 제천시 청풍면 장선리 산 52,62.92379999649711,1.5309000009438023,충청북도 충주시 동량면,충청북도 제천시 청풍면,충청북도 제천시 청풍면 장선리,False,True
37.092817426920945,128.7439200321151,강원특별자치도 영월군 상동읍 내덕리 산 112-1,33.44840000499971,1.9100999925285578,강원특별자치도 영월군 상동읍 내덕리,강원특별자치도 영월군 김삿갓면,강원특별자치도 영월군 김삿갓면 내리,True,True
36.724510713982184,127.61217289725239,충청북도 청주시 청원구 내수읍 초정리 산 25-30,27.46800000022631,1.5409000043291599,충청북도 증평군 증평읍,충청북도 괴산군 청안면,충청북도 청주시 청원구 내수읍 초정리,False,True
36.922610284867055,128.29808207665238,충청북도 단양군 단성면 외중방리 산 34-3,46.21929999848362,1.4492000045720488,충청북도 단양군 단성면,충청북도 단양군 단성면 외중방리,충청북도 단양군 적성면,True,True
35.789654164333896,127.05944186534894,전북특별자치도 김제시 금구면 오봉리 산 12,34.859199993661605,1.246899992111139,전북특별자치도 김제시 금구면,전북특별자치도 김제시 금구면 오봉리,전라북도 김제시 금구면 오봉리,True,True
38.08038164968015,127.02941409400286,경기도 연천군 군남면 삼거리 289,34.80820001277607,0.942600003327243,경기도 연천군 군남면,경기도 연천군 군남면 삼거리,경기도 연천군 군남면 진상리,True,True
35.726261667761186,128.95896240819127,경상북도 청도군 운문면 방음리 산 39,31.873799991444685,0.8888000011211261,경상북도 청도군 운문면,경상북도 경주시 산내면,경상북도 청도군 금천면,True,True
35.49162153890386,126.61196667966988,전북특별자치도 고창군 아산면 반암리 산 33,27.353899989975616,1.224699997692369,전북특별자치도 고창군 아산면,전북특별자치도 고창군 아산면 반암리,전라북도 고창군 아산면 반암리,True,True
35.74692458241932,126.82579068115697,전북특별자치도 김제시 부량면 금강리 606,27.969700007815845,1.2117000005673617,전북특별자치도 김제시 부량면,전북특별자치도 김제시 진봉면,전북특별자치도 김제시 죽산면,True,True
38.23726337759541,128.15476009008768,강원특별자치도 인제군 서화면 심적리 산 1,26.646199999959208,0.6441000004997477,강원특별자치도 인제군 서화면,강원특별자치도 인제군 서화면 심적리,강원특별자치도 인제군 서화면 서흥리,True,True
35.59548345905133,127.91507436789844,경상남도 거창군 남상면 무촌리 산 312,26.46009999443777,1.021600008243695,경상남도 거창군 남상면,경상남도 거창군 신원면,경상남도 거창군 신원면 덕산리,True,True
35.06133935969629,126.29357155053684,전라남도 무안군 해제면 창매리 산 81-4,26.96460000879597,1.23489998804871,전라남도 신안군 지도읍,전라남도 무안군 해제면,전라남도 무안군 해제면 창매리,False,True
35.406345514406794,127.39642951928147,전북특별자치도 남원시 신촌동 산 19,45.337300005485304,1.3949000131106004,전북특별자치도 남원시 신촌동,전북특별자치도 남원시 주천면,전북특별자치도 남원시 어현동,True,True
36.75285244510199,129.34931678850035,경상북도 울진군 온정면 선구리 429,27.741799989598803,1.1354000016581267,경상북도 울진군 온정면,경상북도 울진군 온정면 선구리,경상북도 울진군 온정면 소태리,True,True
37.743647867763094,128.39560987522674,강원특별자치도 홍천군 내면 자운리 산 175,24.743100002524443,0.6311999895842746,강원특별자치도 홍천군 내면,강원특별자치도 홍천군 내면 자운리,강원특별자치도 홍천군 내면 율전리,True,True
36.93002429763984,128.27225901229667,충청북도 단양군 단성면 장회리 산 1-7,28.17039999354165,3.956899992772378,충청북도 단양군 단성면,충청북도 단양군 적성면,충청북도 제천시 수산면,True,True
37.71307874841409,127.82591709307017,강원특별자치도 홍천군 북방면 소매곡리 290-2,35.89210000063758,0.8738000033190474,강원특별자치도 홍천군 북방면,강원특별자치도 홍천군 홍천읍,강원특별자치도 홍천군 북방면 소매곡리,True,True
35.52120970312506,127.68532224892306,경상남도 함양군 병곡면 연덕리 산 18-8,27.89330000814516,1.2212999863550067,경상남도 함양군 함양읍,경상남도 함양군 병곡면,경상남도 함양군 병곡면 연덕리,False,True
36.666418591715406,127.69914879590429,충청북도 청주시 상당구 미원면 구방리 산 34,25.72140000120271,0.9216000034939498,충청북도 청주시 상당구 미원면,충청북도 청주시 상당구 미원면 구방리,충청북도 괴산군 청천면,True,True
34.83077098298951,127.72998743154878,전라남도 여수시 상암동 산 80-1,27.051500001107343,3.2854000019142404,전라남도 여수시 상암동,전라남도 여수시 중흥동,전라남도 여수시 월내동,True,True
35.602912845466555,127.63742920151023,경상남도 함양군 백전면 백운리 산 10,32.40440000081435,4.429799999343231,경상남도 함양군 백전면,경상남도 함양군 백전면 백운리,경상남도 함양군 백전면 운산리,True,True
35.70905798996732,126.74080078305265,전북특별자치도 부안군 부안읍 연곡리 351,33.36200000194367,3.7092999991727993,전북특별자치도 부안군 부안읍,전북특별자치도 부안군 부안읍 연곡리,전라북도 부안군 부안읍 연곡리,True,True
38.1516022252899,127.93678311246282,강원특별자치도 양구군 양구읍 군량리 산 328,28.39500000118278,2.623299995320849,강원특별자치도 양구군 양구읍,강원특별자치도 양구군 양구읍 군량리,강원특별자치도 양구군 양구읍 상무룡리,True,True
36.07741262008665,127.94351887106774,충청북도 영동군 상촌면 흥덕리 산 16-5,50.10920000495389,3.436300001339987,충청북도 영동군 상촌면,충청북도 영동군 상촌면 흥덕리,충청북도 영동군 상촌면 대해리,True,True
35.682739889275005,127.43297270296192,전북특별자치도 진안군 백운면 백암리 산 21-1,54.603700002189726,1.0172000038437545,전북특별자치도 진안군 백운면,전북특별자치도 진안군 백운면 백암리,전라북도 진안군 백운면 백암리,True,True
37.687572503131896,128.58251824246128,강원특별자치도 평창군 진부면 간평리 산 177,34.55070000200067,2.7197000017622486,강원특별자치도 평창군 진부면,강원특별자치도 평창군 대관령면,강원특별자치도 평창군 진부면 간평리,True,True
37.80982405693575,126.23712186054131,인천광역시 강화군 교동면 지석리 산 176,49.99270000553224,2.776199995423667,인천광역시 강화군 교동면,인천광역시 강화군 교동면 지석리,인천광역시 강화군 교동면 무학리,True,True
36.64778236039791,126.57670104397764,충청남도 홍성군 갈산면 가곡리 산 27-1,29.684199995244853,3.2020999933592975,충청남도 홍성군 갈산면,충청남도 홍성군 갈산면 가곡리,충청남도 예산군 덕산면,True,True
35.17378351022776,127.90235020318079,경상남도 하동군 옥종면 법대리 603,31.928099997458048,3.694099999847822,경상남도 하동군 하동읍,경상남도 하동군 하동읍 읍내리,경상남도 하동군 옥종면,False,True
35.96629830016862,128.77724900577851,경상북도 경산시 와촌면 강학리 산 13,52.63439999544062,3.952600003685802,경상북도 경산시 와촌면,경상북도 영천시 청통면,경상북도 영천시 청통면 치일리,True,True
36.80302322006827,129.32546812791674,경상북도 울진군 매화면 길곡리 산 1,52.01810000289697,3.1540000054519624,경상북도 울진군 매화면 길곡리,경상북도 울진군 매화면,경상북도 영양군 수비면,True,True
36.69317018262204,127.16834312021346,세종특별자치시 전의면 유천리 산 90-2,28.889399996842258,3.0818000086583197,세종특별자치시 전의면,세종특별자치시 전의면 유천리,세종특별자치시 소정면,True,True
35.16069248359284,128.15137641197836,경상남도 진주시 문산읍 옥산리 724-1,31.411900010425597,4.588799987686798,경상남도 진주시 문산읍,경상남도 진주시 문산읍 옥산리,경상남도 진주시 문산읍 소문리,True,True
37.40653789065505,127.38414620319071,경기도 광주시 곤지암읍 건업리 4-44,44.56939999363385,3.429599993978627,경기도 광주시 곤지암읍,경기도 광주시 곤지암읍 장심리,경기도 광주시 곤지암읍 건업리,True,True
36.77441735846779,128.0760266231525,경상북도 문경시 문경읍 상초리 25,32.50770000158809,3.3254000009037554,경상북도 문경시 문경읍,경상북도 문경시 문경읍 상초리,충청북도 괴산군 연풍면,True,True
37.501857536616846,127.00739735232591,서울특별시 서초구 반포동 60-5,29.953199991723523,4.073699994478375,서울특별시 서초구 반포동,서울특별시 서초구 서초동,서울특별시 서초구 잠원동,True,True
35.45607796291479,129.14047729454333,울산광역시 울주군 웅촌면 고연리 산 184,28.15060000284575,3.7032999971415848,경상남도 양산시 하북면,울산광역시 울주군 삼동면,울산광역시 울주군 웅촌면,False,True
38.1611500552737,128.14916855368733,강원특별자치도 인제군 북면 월학리 산 439,28.849199996329844,2.8023999911965802,강원특별자치도 인제군 인제읍 가아리,강원특별자치도 인제군 인제읍,강원특별자치도 인제군 북면 월학리,False,True
35.18241660001649,128.07594459498273,경상남도 진주시 망경동 634,54.67739999585319,3.424700000323355,경상남도 진주시 망경동,경상남도 진주시 신안동,경상남도 진주시 주약동,True,True
35.26537187359917,127.28480268903017,전라남도 곡성군 곡성읍 묘천리 25,30.024300009245053,1.3004000065848231,전라남도 곡성군 곡성읍,전라남도 곡성군 오곡면,전라남도 곡성군 곡성읍 묘천리,True,True
37.53705387627069,127.86118474620402,강원특별자치도 횡성군 서원면 유현리 산 186,26.31330001167953,0.926900000195019,강원특별자치도 횡성군 서원면 유현리,강원특별자치도 횡성군 서원면,강원특별자치도 횡성군 공근면,True,True
36.056132367749335,128.33209607768825,경상북도 칠곡군 북삼읍 인평리 954-1,29.59359998931177,3.71879999875091,경상북도 칠곡군 북삼읍,경상북도 칠곡군 북삼읍 인평리,경상북도 칠곡군 약목면,True,True
36.33338216505739,127.93979553994954,경상북도 상주시 모서면 화현리 산 48,31.22119999898132,3.3258000039495528,경상북도 상주시 모서면,경상북도 상주시 모동면,경상북도 상주시 모서면 화현리,True,True
37.412976273316424,127.23883640905824,경기도 광주시 탄벌동 481-2,34.839799991459586,3.7456999998539686,경기도 광주시 탄벌동,경기도 광주시 남한산성면,경기도 광주시 장지동,True,True
37.029920282284955,127.32176258255049,경기도 안성시 보개면 상삼리 산 108-2,29.29230000881944,3.494500007946044,경기도 안성시 보개면,경기도 안성시 금광면,경기도 안성시 보개면 상삼리,True,True
36.854489524520936,127.46066540304294,충청북도 진천군 진천읍 신정리 138-4,30.542799999238923,3.4551999997347593,충청북도 진천군 진천읍,충청북도 진천군 진천읍 신정리,충청북도 진천군 진천읍 삼덕리,True,True
37.41485331942693,126.95723398089622,경기도 안양시 동안구 비산동 산 42-1,30.99050000309944,3.446800008532591,경기도 안양시 동안구 비산동,경기도 안양시 동안구 관양동,경기도 과천시 갈현동,True,True
35.99012822852312,129.0978213796927,경상북도 영천시 고경면 청정리 398-1,52.92639999242965,2.8624000115087256,경상북도 영천시 고경면,경상북도 경주시 안강읍,경상북도 영천시 임고면,True,True
37.61628265897098,128.4332438643965,강원특별자치도 평창군 용평면 도사리 산 176,31.10549999109935,2.29869999748189,강원특별자치도 평창군 용평면,강원특별자치도 평창군 진부면,강원특별자치도 평창군 봉평면,True,True
38.04513190615489,127.44531810845754,경기도 가평군 북면 적목리 산 1-1,32.63560000050347,0.996199989458546,경기도 포천시 이동면,강원특별자치도 화천군 사내면,강원특별자치도 화천군 사내면 광덕리,False,False
37.09517000234781,127.86048957189985,충청북도 충주시 소태면 양촌리 산 63,27.50450000166893,0.9884000028250739,충청북도 충주시 소태면,충청북도 충주시 소태면 중청리,충청북도 충주시 소태면 양촌리,True,True
36.23797599146616,127.80025070276236,충청북도 영동군 용산면 율리 산 53-1,26.333700006944127,1.2150999973528087,충청북도 영동군 용산면,충청북도 영동군 용산면 율리,충청북도 영동군 영동읍,True,True
37.81970164609353,128.8746673064065,강원특별자치도 강릉시 사천면 산대월리 산 37,29.65280000353232,1.382599992211908,강원특별자치도 강릉시 사천면,강원특별자치도 강릉시 사천면 방동리,강원특별자치도 강릉시 사천면 산대월리,True,True
36.520148130806966,129.05371060171262,경상북도 청송군 진보면 각산리 산 38-1,25.76200000476092,1.3326000043889508,경상북도 청송군 진보면,경상북도 청송군 진보면 각산리,경상북도 청송군 진보면 진안리,True,True
36.25570603736809,128.61341402254033,대구광역시 군위군 군위읍 상곡리 산 14,26.672299994970672,1.09119999979157,대구광역시 군위군 군위읍,대구광역시 군위군 군위읍 상곡리,대구광역시 군위군 군위읍 광현리,True,True
36.705444096960996,127.18969097244032,세종특별자치시 소정면 고등리 500-1,25.932100004865788,2.7279999922029674,세종특별자치시 전의면,세종특별자치시 소정면,세종특별자치시 소정면 고등리,False,True
37.67542878609579,128.3874178734531,강원특별자치도 평창군 봉평면 덕거리 571,28.81080000952352,2.892699994845316,강원특별자치도 평창군 용평면,강원특별자치도 평창군 봉평면,강원특별자치도 홍천군 내면,False,True
35.5837839095141,127.25459505554971,전북특별자치도 임실군 임실읍 두만리 산 35-1,50.85630000394303,2.4539000005461276,전북특별자치도 임실군 임실읍,전북특별자치도 임실군 임실읍 두만리,전라북도 임실군 임실읍 두만리,True,True
35.99558489523775,127.98128149028642,경상북도 김천시 부항면 희곡리 산 55,25.06490000814665,1.0949999996228144,경상북도 김천시 부항면,경상북도 김천시 구성면,경상북도 김천시 부항면 희곡리,True,True
37.61391950663273,128.65034048417917,강원특별자치도 평창군 대관령면 용산리 산 142,26.646300000720657,0.6797999958507717,강원특별자치도 평창군 진부면,강원특별자치도 평창군 대관령면,강원특별자치도 평창군 대관령면 용산리,False,True
37.92890754353522,127.92931052081323,강원특별자치도 춘천시 북산면 물로리 산 1-1,26.074499997776,0.9952999971574172,강원특별자치도 춘천시 북산면,강원특별자치도 춘천시 북산면 물로리,강원특별자치도 춘천시 북산면 조교리,True,True
35.149819408804966,126.74704000322079,광주광역시 광산구 지평동 6,25.672699994174764,1.9174000044586137,광주광역시 광산구 서봉동,광주광역시 광산구 지평동,광주광역시 광산구 지죽동,False,True
36.594779393751374,127.24658252255256,세종특별자치시 연서면 신대리 산 2-1,30.436200002441183,1.8610999977681786,세종특별자치시 연서면,세종특별자치시 연서면 신대리,세종특별자치시 연서면 고복리,True,True
37.11144704571089,127.82222073299359,충청북도 충주시 소태면 복탄리 908,123.82390000857413,1.1572999937925488,충청북도 충주시 앙성면,충청북도 충주시 소태면,충청북도 충주시 소태면 복탄리,False,True
35.37673651475246,126.7468271090703,전라남도 장성군 서삼면 모암리 산 113,67.63619999401271,1.6174999909708276,전라남도 장성군 서삼면 모암리,전라남도 장성군 북일면,전라남도 장성군 서삼면,True,True
37.05410403112085,127.99741210158432,충청북도 충주시 동량면 조동리 산 32-10,327.20770000014454,3.3974999969359487,충청북도 충주시 동량면,충청북도 충주시 산척면,충청북도 충주시 동량면 조동리,True,True
34.38967824756288,126.5387552915777,전라남도 해남군 송지면 해원리 산 220-1,48.47690000315197,3.9825999992899597,전라남도 해남군 송지면,전라남도 해남군 북평면,전라남도 해남군 송지면 해원리,True,True
35.647475891458605,126.94975759034227,전북특별자치도 정읍시 태인면 거산리 39,361.67399999976624,1.2493999965954572,전북특별자치도 정읍시 태인면,전북특별자치도 정읍시 옹동면,전라북도 정읍시 태인면 거산리,True,True
35.20716130979451,127.80713875607317,경상남도 하동군 옥종면 궁항리 산 93,28.302699996856973,1.0668000031728297,경상남도 하동군 하동읍,경상남도 하동군 하동읍 읍내리,경상남도 하동군 청암면,False,False
36.554397991573204,129.01477051304005,경상북도 청송군 진보면 부곡리 산 29-5,27.118400001199916,1.0751000081654638,경상북도 청송군 진보면,경상북도 안동시 임동면,경상북도 영양군 입암면,True,True
34.79633959617411,127.19419994537893,전라남도 보성군 조성면 동촌리 산 58-4,69.46320000861306,1.7602000007173046,전라남도 보성군 겸백면 수남리,전라남도 보성군 겸백면,전라남도 보성군 조성면,False,True
35.54997827717795,128.82230290664177,경상남도 밀양시 상동면 도곡리 산 388,30.293300005723722,0.9587999957147986,경상남도 밀양시 상동면,경상남도 밀양시 산외면,경상남도 밀양시 상동면 도곡리,True,True
35.879884395704785,126.81514996563862,전북특별자치도 김제시 만경읍 화포리 1081-2,29.15279999433551,1.3478000037139282,전북특별자치도 군산시 개사동,전북특별자치도 김제시 진봉면,전북특별자치도 김제시 만경읍,False,True
35.45941957821551,127.15378548781419,전북특별자치도 순창군 인계면 탑리 산 118-1,26.443399998242967,2.870600001187995,전북특별자치도 순창군 구림면,전북특별자치도 순창군 인계면,전북특별자치도 순창군 인계면 탑리,False,True
35.35817924643704,128.4948391298495,경상남도 함안군 칠서면 태곡리 22-2,25.68240000982769,1.1513999925227836,경상남도 함안군 칠서면,경상남도 함안군 칠서면 대치리,경상남도 함안군 칠서면 태곡리,True,True
35.023218247950716,127.77894699874032,전라남도 광양시 진월면 오사리 1427,120.84079999476671,1.2247999984538183,경상남도 하동군 금남면,경상남도 하동군 하동읍,경상남도 하동군 하동읍 읍내리,False,False
36.181594433509254,128.29072739076554,경상북도 구미시 고아읍 내예리 519-54,26.493800003663637,2.626699992106296,경상북도 구미시 고아읍,경상북도 김천시 아포읍,경상북도 구미시 고아읍 내예리,True,True
36.613917260240925,126.79854945653828,충청남도 예산군 대흥면 대야리 351,26.780100000905804,1.5618000034010038,충청남도 예산군 대흥면,충청남도 예산군 대흥면 교촌리,충청남도 예산군 대흥면 대야리,True,True
35.780233655606786,127.30775366602103,전북특별자치도 진안군 마령면 덕천리 산 158,29.642499997862615,1.3885999942431226,전북특별자치도 진안군 성수면,전라북도 진안군 성수면 중길리,전북특별자치도 진안군 성수면 중길리,False,False
36.0013027174771,128.80102346946074,경상북도 영천시 청통면 애련리 255-2,30.765100003918633,2.886600006604567,경상북도 영천시 청통면,경상북도 경산시 와촌면,경상북도 영천시 청통면 치일리,True,True
38.10676510225407,128.59842704978348,강원특별자치도 양양군 강현면 금풍리 산 83,33.91719999490306,2.2985999967204407,강원특별자치도 양양군 양양읍,강원특별자치도 양양군 강현면,강원특별자치도 양양군 서면,False,True
38.282602846760014,127.36093520956581,강원특별자치도 철원군 김화읍 도창리 587-1,32.25150000071153,0.8128999907057732,강원특별자치도 철원군 갈말읍,강원특별자치도 철원군 김화읍,강원특별자치도 철원군 김화읍 도창리,False,True
35.51844694544944,128.6983416831002,경상남도 밀양시 무안면 운정리 산 2,28.92079998855479,1.072099999873899,경상남도 밀양시 부북면,경상남도 밀양시 무안면,경상남도 밀양시 부북면 청운리,False,True
35.65285356764505,127.09482453938973,전북특별자치도 완주군 구이면 백여리 산 335-3,32.896200005779974,2.0687999931396917,전북특별자치도 완주군 구이면,전라북도 완주군 구이면 백여리,전북특별자치도 완주군 구이면 백여리,True,True
34.83277484099444,126.49036456510396,전라남도 무안군 삼향읍 용포리 1591-12,44.080600011511706,3.2470000005559996,전라남도 무안군 일로읍,전라남도 무안군 삼향읍,전라남도 무안군 삼향읍 용포리,False,True
35.82104436260054,128.54064283115775,대구광역시 달서구 상인동 763-4,264.87579999957234,1.410800003213808,대구광역시 달서구 상인동,대구광역시 달성군 화원읍,대구광역시 달서구 송현동,True,True
36.448950502214025,127.51662201823281,충청북도 청주시 상당구 문의면 후곡리 산 10-1,27.73390000220388,1.2832999927923083,충청북도 청주시 상당구 문의면,충청북도 청주시 상당구 문의면 소전리,충청북도 청주시 상당구 문의면 후곡리,True,True
35.772895942159884,127.38263745051356,전북특별자치도 진안군 진안읍 연장리 634-1,26.150599995162338,2.139000003808178,전북특별자치도 진안군 진안읍,전북특별자치도 진안군 마령면,전북특별자치도 진안군 진안읍 연장리,True,True
37.337184740643984,128.50635750604414,강원특별자치도 평창군 미탄면 창리 1126,30.479699998977594,2.3999999975785613,강원특별자치도 평창군 미탄면,강원특별자치도 평창군 미탄면 창리,강원특별자치도 정선군 정선읍,True,True
35.42845157191001,127.79467748787059,경상남도 산청군 금서면 자혜리 산 66,27.63659998890944,2.782600000500679,경상남도 산청군 금서면,경상남도 산청군 금서면 자혜리,경상남도 함양군 휴천면,True,True
37.384451374055736,127.57445939976299,경기도 여주시 대신면 보통리 282-2,46.432900009676814,3.735699996468611,경기도 여주시 대신면,경기도 여주시 대신면 보통리,경기도 여주시 대신면 율촌리,True,True
35.967611496497895,127.45392409197558,전북특별자치도 진안군 용담면 와룡리 산 47,31.42939999816008,3.0882999999448657,전북특별자치도 진안군 주천면,전라북도 진안군 용담면 와룡리,전북특별자치도 진안군 용담면 와룡리,False,True
37.70003059590641,128.4434039805239,강원특별자치도 평창군 용평면 노동리 산 1-2,48.141000006580725,1.3103999954182655,강원특별자치도 평창군 진부면,강원특별자치도 홍천군 내면,강원특별자치도 평창군 용평면,False,True
36.21149008445533,128.63761630313775,경상북도 의성군 금성면 도경리 산 128,29.881100010243244,0.8813000022200868,대구광역시 군위군 우보면,대구광역시 군위군 효령면,대구광역시 군위군 효령면 노행리,False,False
35.06274438410679,128.88642118219647,부산광역시 강서구 명지동 3225,26.188400006503798,0.9944999910658225,부산광역시 사하구 다대동,부산광역시 강서구 명지동,부산광역시 강서구 신호동,False,True
36.04966052699682,128.17833292906445,경상북도 김천시 농소면 봉곡리 산 79-1,27.432999995653518,1.3397000002441928,경상북도 김천시 농소면,경상북도 김천시 농소면 봉곡리,경상북도 김천시 감천면,True,True
36.89542904901299,128.99343682195234,경상북도 봉화군 소천면 임기리 산 221,27.11480000289157,1.1976999958278611,경상북도 봉화군 소천면,경상북도 봉화군 소천면 임기리,경상북도 봉화군 재산면 갈산리,True,True
36.38380400762404,128.19625033717512,경상북도 상주시 낙동면 운평리 산 42,39.223200001288205,3.095100008067675,경상북도 상주시 낙동면,경상북도 상주시 낙동면 운평리,경상북도 상주시 거동동,True,True
35.51408543400098,126.48424394059937,전북특별자치도 고창군 해리면 동호리 438-6,32.562699998379685,3.235199998016469,전북특별자치도 고창군 심원면,전북특별자치도 고창군 심원면 만돌리,전라북도 고창군 심원면 만돌리,False,False
35.82607408114666,129.40900776390907,경상북도 경주시 문무대왕면 호암리 176,29.441100006806664,2.913000003900379,경상북도 경주시 문무대왕면,경상북도 경주시 문무대왕면 안동리,경상북도 경주시 문무대왕면 용동리,True,True
35.735161909885655,127.93042618300872,경상남도 거창군 거창읍 학리 산 100-1,28.71110000705812,2.6292999973520637,경상남도 거창군 주상면,경상남도 거창군 거창읍,경상남도 거창군 거창읍 학리,False,True
37.7377312105157,127.74861327525169,강원특별자치도 홍천군 북방면 구만리 산 11-1,27.285999996820465,0.8304000075440854,강원특별자치도 홍천군 북방면,강원특별자치도 춘천시 동산면,강원특별자치도 춘천시 동산면 군자리,True,True
36.14344748927227,127.71150397232331,충청북도 영동군 양강면 두평리 22,32.3705000046175,0.9270000009564683,충청북도 영동군 양강면,충청북도 영동군 양강면 두평리,충청북도 영동군 학산면,True,True
36.59731366699518,126.48718192576621,충청남도 홍성군 서부면 궁리 37-5,28.16839999286458,1.1086000013165176,충청남도 홍성군 서부면,충청남도 홍성군 갈산면,충청남도 홍성군 서부면 궁리,True,True
35.6386910508495,129.39283494064566,울산광역시 북구 대안동 산 292-8,29.02100000937935,1.1847999994643033,울산광역시 북구 대안동,울산광역시 북구 무룡동,울산광역시 북구 매곡동,True,True
35.152075239091154,127.19822556949971,전라남도 곡성군 석곡면 염곡리 산 692,30.12380001018755,1.9274999940535054,전라남도 곡성군 석곡면,전라남도 곡성군 석곡면 염곡리,전라남도 화순군 백아면,True,True
35.3121035596017,126.97401889748804,전라남도 담양군 담양읍 천변리 396-2,27.88029999646824,1.1863999970955774,전라남도 담양군 담양읍,전라남도 담양군 담양읍 천변리,전라남도 담양군 담양읍 강쟁리,True,True
35.99838550727673,129.09635180596368,경상북도 영천시 고경면 삼산리 253,31.57150000333786,1.061999995727092,경상북도 영천시 고경면,경상북도 영천시 임고면,경상북도 경주시 안강읍,True,True
34.614051938261035,126.07967556114565,전라남도 신안군 신의면 상태서리 867,40.50620000634808,1.0174999915761873,전라남도 신안군 신의면,전라남도 신안군 하의면,전라남도 신안군 신의면 상태서리,True,True
35.58131878839329,127.37574877123492,전북특별자치도 임실군 지사면 영천리 409,29.818700000760145,1.2697000056505203,전북특별자치도 장수군 산서면,전북특별자치도 임실군 지사면,전북특별자치도 임실군 성수면,False,True
34.887871676759474,127.70391465368662,전라남도 여수시 묘도동 산 142,27.344200003426522,1.260999997612089,경상남도 하동군 금남면,전라남도 여수시 묘도동,전라남도 광양시 금호동,False,True
37.98051736370364,127.67194331839349,강원특별자치도 춘천시 사북면 인람리 산 89,48.703499996918254,1.142200009780936,강원특별자치도 춘천시 사북면,강원특별자치도 춘천시 사북면 인람리,강원특별자치도 춘천시 서면,True,True
35.79483020573692,128.64868405186243,대구광역시 달성군 가창면 행정리 산 100-1,32.62420000100974,1.2827999889850616,대구광역시 달성군 가창면,대구광역시 달성군 가창면 행정리,대구광역시 수성구 범물동,True,True
35.79660728644549,127.96091590608066,경상남도 거창군 가북면 해평리 산 57,31.942400004481897,1.5639999910490587,경상남도 거창군 가북면,경상남도 거창군 웅양면,경상남도 거창군 가북면 해평리,True,True
35.87571181612553,127.57394278272842,전북특별자치도 진안군 동향면 자산리 산 13,28.549199996632524,0.9654999885242432,전북특별자치도 진안군 안천면,전북특별자치도 진안군 동향면,전라북도 진안군 동향면 능금리,False,True
37.02185632143622,127.55591104709089,충청북도 음성군 금왕읍 구계리 산 17-22,27.48069999506697,1.3925000093877316,충청북도 음성군 금왕읍,충청북도 음성군 생극면,충청북도 음성군 금왕읍 구계리,True,True
35.599546600925905,129.0837600380609,울산광역시 울주군 상북면 산전리 795,28.490099997725338,0.9974999993573874,울산광역시 울주군 상북면,울산광역시 울주군 상북면 산전리,울산광역시 울주군 언양읍,True,True
34.43532869308253,127.30756918606501,전라남도 고흥군 도화면 지죽리 산 68-2,28.311300004133955,1.0077000042656437,전라남도 고흥군 도화면 지죽리,전라남도 고흥군 도양읍,전라남도 고흥군 도양읍 시산리,True,True
35.233710202864906,127.66660674908468,경상남도 하동군 화개면 운수리 산 30,44.84499999671243,0.9735999919939786,경상남도 하동군 하동읍,경상남도 하동군 하동읍 읍내리,경상남도 하동군 화개면,False,True
37.595977096495126,128.11910963897046,강원특별자치도 횡성군 청일면 초현리 산 21,37.78860000602435,1.920599999721162,강원특별자치도 횡성군 갑천면,강원특별자치도 횡성군 청일면,강원특별자치도 횡성군 갑천면 병지방리,False,True
37.222167307233796,128.92094799961723,강원특별자치도 태백시 창죽동 산 1-1,27.54060000006575,0.8320999913848937,강원특별자치도 태백시 창죽동,강원특별자치도 삼척시 하장면 한소리,강원특별자치도 태백시 화전동,True,True
37.04879549599127,129.00119436586695,경상북도 봉화군 석포면 대현리 171-1,26.80269999837037,1.2647999974433333,경상북도 봉화군 석포면,경상북도 봉화군 석포면 대현리,경상북도 봉화군 소천면,True,True
36.768283514856634,128.01949756539668,충청북도 괴산군 연풍면 행촌리 산 14-1,26.803800006746314,0.79929998901207,충청북도 괴산군 연풍면,충청북도 괴산군 연풍면 행촌리,충청북도 충주시 수안보면,True,True
38.41179665113357,128.41390572507373,강원특별자치도 고성군 거진읍 석문리 503-1,54.07749999722,2.1853999933227897,강원특별자치도 고성군 수동면,강원특별자치도 고성군 거진읍,강원특별자치도 고성군 간성읍,False,True
36.26077078106833,127.10470868113687,충청남도 논산시 광석면 사월리 115,49.56529999617487,3.683400005684234,충청남도 논산시 노성면,충청남도 논산시 광석면,충청남도 논산시 광석면 사월리,False,True
36.5384215455806,127.40779505973312,충청북도 청주시 서원구 남이면 부용외천리 산 198,31.048899996676482,3.3426000009058043,충청북도 청주시 서원구 남이면,세종특별자치시 부강면,충청북도 청주시 서원구 남이면 부용외천리,True,True
37.04420854801418,129.26742540886696,경상북도 울진군 북면 두천리 산 33,33.35030000016559,3.057599999010563,경상북도 울진군 북면,경상북도 울진군 북면 상당리,경상북도 울진군 금강송면,True,True
35.317544255465,129.21316952129598,부산광역시 기장군 정관읍 예림리 203-17,45.291999995242804,1.0701999999582767,부산광역시 기장군 정관읍,부산광역시 기장군 일광읍,부산광역시 기장군 장안읍,True,True
34.56514588815911,126.67190357877013,전라남도 해남군 옥천면 흑천리 762-2,27.279700007056817,1.0380999883636832,전라남도 해남군 옥천면,전라남도 강진군 도암면,전라남도 해남군 옥천면 청신리,True,True
34.85197061268946,126.1175851922579,전라남도 신안군 암태면 신석리 2981-2,29.6537999965949,0.8702999912202358,전라남도 신안군 암태면,전라남도 신안군 암태면 신석리,전라남도 신안군 암태면 기동리,True,True
37.15574959732149,126.98510139891232,경기도 화성시 정남면 발산리 583-5,25.657400008640252,0.8894999918993562,경기도 화성시 정남면,경기도 화성시 정남면 계향리,경기도 화성시 정남면 발산리,True,True
38.04063546210568,126.98779922059302,경기도 연천군 미산면 유촌리 535,46.98579999967478,2.7597000007517636,경기도 연천군 미산면,경기도 연천군 전곡읍,경기도 연천군 군남면,True,True
37.58633094715267,128.68974010840262,강원특별자치도 강릉시 왕산면 대기리 산 795,47.08530000061728,3.417600004468113,강원특별자치도 평창군 진부면,강원특별자치도 강릉시 왕산면 대기리,강원특별자치도 강릉시 왕산면,False,True
36.56515035508134,127.87409113283454,경상북도 상주시 화북면 장암리 산 33,33.03829999640584,3.4142999938922003,경상북도 상주시 화북면,충청북도 보은군 속리산면,경상북도 상주시 화북면 장암리,True,True
36.77455472728981,127.11835187072289,충청남도 아산시 배방읍 휴대리 440,34.65889999642968,3.654700005427003,충청남도 천안시 동남구 신방동,충청남도 아산시 배방읍,충청남도 아산시 배방읍 휴대리,False,True
37.33676637438896,127.27097711256769,경기도 용인시 처인구 모현읍 왕산리 산 85,34.48940000089351,1.8104000046150759,경기도 용인시 처인구 모현읍,경기도 용인시 처인구 모현읍 왕산리,경기도 광주시 매산동,True,True
37.64445469563982,128.05843911619482,강원특별자치도 홍천군 영귀미면 좌운리 산 3,43.278500001179054,1.1098000104539096,강원특별자치도 홍천군 영귀미면,강원특별자치도 홍천군 영귀미면 노천리,강원특별자치도 홍천군 영귀미면 좌운리,True,True
36.621250476268834,126.63976987836561,충청남도 홍성군 홍북읍 중계리 산 54,31.36609999637585,1.0750999936135486,충청남도 홍성군 홍북읍,충청남도 홍성군 홍북읍 중계리,충청남도 예산군 덕산면,True,True
35.96782403869177,129.22050089193542,경상북도 경주시 안강읍 대동리 산 5,27.494500012835488,0.9070000087376684,경상북도 경주시 안강읍,경상북도 경주시 강동면,경상북도 경주시 안강읍 갑산리,True,True
36.24071641633505,127.75309308797753,충청북도 영동군 심천면 단전리 389-2,30.906900006812066,1.0351000091759488,충청북도 영동군 심천면 단전리,충청북도 영동군 심천면,충청북도 영동군 용산면,True,True
36.09167819302196,127.39745518922848,충청남도 금산군 진산면 오항리 산 14-1,27.343800000380725,1.0765000042738393,충청남도 금산군 남이면,충청남도 금산군 진산면,전북특별자치도 완주군 운주면,False,True
37.391872796718644,128.7549582120105,강원특별자치도 정선군 화암면 북동리 산 1,53.79349998838734,1.0562000097706914,강원특별자치도 정선군 화암면,강원특별자치도 정선군 화암면 북동리,강원특별자치도 정선군 정선읍,True,True
36.93289246964148,127.23489943565458,경기도 안성시 서운면 송정리 152-4,28.896300005726516,1.152400000137277,충청남도 천안시 서북구 입장면,경기도 안성시 서운면,경기도 안성시 미양면,False,True
35.628507879234256,128.0718417258966,경상남도 합천군 봉산면 권빈리 536,31.02239999861922,0.9814000077312812,경상남도 합천군 봉산면,경상남도 합천군 봉산면 권빈리,경상남도 합천군 묘산면,True,True
35.20017721325293,126.65735011638908,전라남도 장성군 삼서면 금산리 산 59,55.09100000199396,2.2947999968891963,전라남도 함평군 월야면,전라남도 장성군 삼서면,전라남도 장성군 삼서면 금산리,False,True
34.74686276166275,127.70726743110629,전라남도 여수시 여서동 산 72-1,34.69970000151079,1.2368999887257814,전라남도 여수시 여서동,전라남도 여수시 문수동,전라남도 여수시 신월동,True,True
38.132281322502386,127.48774192653616,강원특별자치도 철원군 근남면 잠곡리 산 133-1,31.467399996472523,0.797100001364015,강원특별자치도 화천군 사내면,강원특별자치도 철원군 서면,강원특별자치도 철원군 근남면 잠곡리,False,True
36.8888516775901,128.87627632052502,경상북도 봉화군 명호면 도천리 산 166,27.522999997017905,0.8039999956963584,경상북도 봉화군 법전면,경상북도 봉화군 명호면,경상북도 봉화군 명호면 도천리,False,True
35.740685091403066,127.97038848462586,경상남도 거창군 가북면 용산리 산 101,27.803100005257875,1.436699996702373,경상남도 거창군 가북면,경상남도 거창군 가북면 용산리,경상남도 거창군 주상면,True,True
35.75685867165858,127.91630387089522,경상남도 거창군 주상면 도평리 376-3,47.156700005871244,0.9013000089908019,경상남도 거창군 주상면,경상남도 거창군 주상면 성기리,경상남도 거창군 주상면 도평리,True,True
36.7192915022433,127.25360748951267,충청남도 천안시 동남구 성남면 봉양리 334-3,27.732700007618405,1.6242999990936369,충청남도 천안시 동남구 성남면,충청남도 천안시 동남구 성남면 봉양리,충청남도 천안시 동남구 수신면,True,True
36.98262256416228,126.58751835547325,충청남도 당진시 석문면 통정리 621-8,333.0275000043912,1.2227999977767467,충청남도 당진시 석문면,충청남도 당진시 고대면,충청남도 당진시 석문면 통정리,True,True
35.63070174764945,128.5867213812113,경상북도 청도군 풍각면 흑석리 산 50,30.36390000488609,0.98230000003241,경상북도 청도군 풍각면,경상북도 청도군 풍각면 흑석리,경상남도 창녕군 성산면,True,True
35.596147780242575,129.0878896651036,울산광역시 울주군 상북면 산전리 924-15,29.37930000189226,1.1620000004768372,울산광역시 울주군 상북면,울산광역시 울주군 상북면 산전리,울산광역시 울주군 언양읍,True,True
36.21924187047828,129.05707893658808,경상북도 포항시 북구 죽장면 월평리 산 115,43.84159999608528,1.208400004543364,경상북도 포항시 북구 죽장면,경상북도 청송군 현동면,경상북도 포항시 북구 죽장면 월평리,True,True
37.4875507769638,127.76568698379417,경기도 양평군 양동면 계정리 산 210,49.1011999984039,2.0459999941522256,경기도 양평군 양동면,강원특별자치도 횡성군 서원면,강원특별자치도 횡성군 서원면 석화리,True,True
37.48609398736851,128.8827020577858,강원특별자치도 정선군 임계면 송계리 산 1,31.319899993832223,2.4129000084940344,강원특별자치도 정선군 임계면,강원특별자치도 정선군 임계면 봉산리,강원특별자치도 정선군 임계면 송계리,True,True
35.08208183323201,127.90694861758627,경상남도 사천시 곤양면 무고리 산 49,54.7841000079643,2.1299999934853986,경상남도 하동군 금남면,경상남도 하동군 금남면 중평리,경상남도 하동군 하동읍 읍내리,False,False
35.35723544972703,127.39317371090482,전북특별자치도 남원시 수지면 고평리 1681-15,46.334099999512546,1.3805999915348366,전북특별자치도 남원시 수지면,전라남도 구례군 산동면,전북특별자치도 남원시 송동면,True,True
35.31608126469984,127.26538749351991,전북특별자치도 남원시 금지면 상귀리 산 76,42.56030000397004,4.124499988392927,전라남도 곡성군 곡성읍 신기리,전북특별자치도 남원시 금지면,전라남도 곡성군 곡성읍,False,True
